time,Logger Temperature,External Voltage,Speed_RL,Speed_FR,Speed_FL,Speed_RR,CLT_Rad_Out,Fuel_P,CLT_Rad_In,BP_F,BP_R,LateralAcc,InlineAcc,VerticalAcc,PitchRate,RollRate,YawRate,RPM,TPS,MAP,IAT,INJPW,AIN1,AIN2,AIN3,AIN4,BARO,OILT,OILP,CLT,IGNANG,DWELL,Lambda,LAMCORR,BT_FR_L,BT_FR_R,GPS_Speed,GPS_Nsat,GPS_LatAcc,GPS_LonAcc,GPS_Slope,GPS_Heading,GPS_Gyro,GPS_Altitude,GPS_PosAccuracy,GPS_SpdAccuracy,GPS_FreqAccuracy,
0.000,31.671757,13.631269,61.631794,27.315790,28.483343,57.945507,73.811867,-0.074993,76.436897,0.504742,0.465366,-0.059777,1.049846,-0.694080,-1.598332,-5.263231,13.352942,9326.863281,100.000000,1.017865,21.000000,6.259014,549.804626,268.553009,999.023926,0.152441,1.040000,60.000000,6.000000,74.999725,31.499748,0.209997,0.861549,100.000000,-0.000015,-0.000015,28.100000,11.000000,0.082215,0.894164,1.530003,-6.852164,6.303359,115.000000,0.980000,0.140000,0.000000
0.000,31.671757,13.631682,61.405079,27.669876,28.801941,58.036514,73.811867,-0.073618,76.463486,0.515237,0.467632,0.026753,0.863615,-0.792730,-0.063868,-4.785751,13.020222,9322.925781,100.000000,1.011281,21.000000,6.262136,549.804626,268.470154,999.023926,0.137197,1.040000,60.000000,6.000000,74.999725,31.499748,0.209774,0.855862,100.000000,-0.000015,-0.000015,28.410000,11.000000,0.086357,0.896394,1.497344,-6.707778,6.511915,115.000000,0.980000,0.140000,0.000000
0.000,31.671757,13.632095,61.178368,28.023962,29.120537,58.127522,73.811867,-0.072242,76.490082,0.512904,0.476127,0.113283,0.677384,-0.891379,1.470596,-4.308272,12.687501,9318.988281,100.000000,1.004696,21.000000,6.265258,549.804626,268.387268,999.023926,0.121953,1.040000,60.000000,6.000000,74.999725,31.499748,0.209552,0.850175,100.000000,-0.000015,-0.000015,28.720001,11.000000,0.090500,0.898625,1.464686,-6.563393,6.720472,115.000000,0.980000,0.140000,0.000000
0.000,31.671757,13.632508,60.951653,28.378050,29.439135,58.218529,73.811867,-0.072675,76.494972,0.518152,0.471030,0.177215,0.886503,-1.007501,-0.236820,-6.289669,12.545957,9315.051758,100.000000,0.998112,21.000000,6.268380,549.804626,268.304413,999.023926,0.106709,1.040000,60.000000,6.000000,74.999725,31.499748,0.209330,0.844489,100.000000,-0.000015,-0.000015,29.030001,11.000000,0.094643,0.900856,1.432027,-6.419008,6.929029,115.000000,0.980000,0.140000,0.000000
0.000,31.671757,13.632921,60.724941,28.732136,29.757730,58.309536,73.811867,-0.073108,76.499863,0.522816,0.476693,0.241147,1.095621,-1.123623,-1.944235,-8.271067,12.404412,9311.114258,100.000000,0.991527,21.000000,6.271502,549.804626,268.221527,999.023926,0.091465,1.040000,60.000000,6.000000,74.999725,31.499748,0.209108,0.838802,100.000000,-0.000015,-0.000015,29.340000,11.000000,0.098785,0.903086,1.399369,-6.274622,7.137585,115.000000,0.980000,0.140000,0.000000
0.000,31.671757,13.633334,60.498226,29.086222,30.076328,58.400543,73.811867,-0.073314,76.499863,0.515820,0.478958,0.183741,0.947216,-0.971974,-0.596174,-4.651371,12.761030,9307.176758,100.000000,0.984943,21.000000,6.274624,549.804626,268.138672,999.023926,0.076221,1.040000,60.000000,6.000000,74.999725,31.499748,0.208886,0.833115,100.000000,-0.000015,-0.000015,29.650002,11.000000,0.102928,0.905317,1.366710,-6.130237,7.346142,115.000000,0.980000,0.140000,0.000000
0.001,31.671757,13.633747,60.470646,29.340364,30.414612,58.405819,73.811867,-0.073520,76.499863,0.527480,0.477259,0.126335,0.798810,-0.820324,0.751886,-1.031676,13.117647,9303.239258,100.000000,0.978358,21.000000,6.277746,549.804626,268.055817,999.023926,0.060977,1.040000,60.000000,6.000000,74.999725,31.499748,0.208664,0.827428,100.000000,-0.000015,-0.000015,29.960001,11.000000,0.107070,0.907548,1.334051,-5.985852,7.554698,115.000000,0.980000,0.140000,0.000000
0.001,31.671757,13.634161,60.443066,29.594507,30.752893,58.411095,73.785416,-0.072444,76.499863,0.529229,0.477259,0.059907,0.907062,-0.780563,0.253210,-2.046677,14.161765,9299.301758,100.000000,0.971774,21.000000,6.280869,549.804626,267.972931,999.023926,0.045732,1.040000,60.000000,6.000000,74.999725,31.499748,0.208441,0.821741,100.000000,-0.000015,-0.000015,30.270000,11.000000,0.111213,0.909778,1.301393,-5.841466,7.763255,115.000000,0.980000,0.140000,0.000000
0.001,31.671757,13.634574,60.415485,29.848650,31.091177,58.416370,73.758972,-0.071369,76.499863,0.523982,0.474428,-0.006520,1.015314,-0.740801,-0.245467,-3.061679,15.205883,9295.365234,100.000000,0.965189,21.000000,6.283990,549.804626,267.890076,999.023926,0.030488,1.040000,60.000000,6.000000,74.999725,31.499748,0.208219,0.816055,100.000000,-0.000015,-0.000015,30.580000,11.000000,0.115356,0.912009,1.268734,-5.697081,7.971811,115.000000,0.980000,0.140000,0.000000
0.001,31.671757,13.634987,60.387905,30.102793,31.429459,58.421646,73.754395,-0.071643,76.526459,0.518152,0.474994,0.005241,0.891693,-1.016797,-0.232015,-0.711450,15.994486,9291.427734,100.000000,0.958605,21.000000,6.287112,549.804626,267.807190,999.023926,0.015244,1.040000,60.000000,6.000000,74.999725,31.499748,0.207997,0.810368,100.000000,-0.000015,-0.000015,30.890001,11.000000,0.119498,0.914239,1.236076,-5.552696,8.180368,115.000000,0.980000,0.140000,0.000000
0.001,31.671757,13.635400,60.360325,30.356936,31.767742,58.426922,73.749809,-0.071918,76.553047,0.511155,0.472729,0.017002,0.768071,-1.292793,-0.218564,1.638779,16.783089,9287.490234,100.000000,0.952020,21.000000,6.290235,549.804626,267.724335,999.023926,0.000000,1.040000,60.000000,6.000000,74.999725,31.499748,0.207775,0.804681,100.000000,-0.000015,-0.000015,31.200001,11.000000,0.123641,0.916470,1.203417,-5.408310,8.388925,115.000000,0.980000,0.140000,0.000000
0.001,31.671757,13.635813,60.199528,30.701416,32.121048,58.503948,73.776253,-0.072545,76.557632,0.524565,0.476127,0.049150,0.892458,-1.150293,-0.997806,0.417918,16.992647,9273.582031,100.000000,0.956618,21.000000,6.289833,549.804626,267.709656,999.023926,0.000000,1.040000,60.000000,6.000000,74.999725,31.499748,0.207272,0.804681,100.000000,-0.000015,-0.000015,31.530001,11.000000,0.129249,0.917745,1.204563,-5.253612,8.641026,115.000000,0.979000,0.140000,0.000000
0.001,31.671757,13.636226,60.038734,31.045898,32.474354,58.580975,73.802696,-0.073172,76.562210,0.528063,0.481790,0.081298,1.016844,-1.007793,-1.777049,-0.802943,17.202206,9259.672852,100.000000,0.961215,21.000000,6.289431,549.804626,267.694977,999.023926,0.000000,1.040000,60.000000,6.000000,74.999725,31.499748,0.206770,0.804681,100.000000,-0.000015,-0.000015,31.860001,11.000000,0.134858,0.919019,1.205709,-5.098913,8.893127,115.000000,0.978000,0.140000,0.000000
0.001,31.671757,13.636639,59.877937,31.390379,32.827660,58.658005,73.807281,-0.072723,76.562210,0.521650,0.471596,0.101256,0.893988,-0.874832,-0.397280,-3.153172,17.463236,9245.764648,100.000000,0.965812,21.000000,6.289029,549.804626,267.680298,999.023926,0.000000,1.040000,60.000000,6.000000,74.999725,31.499748,0.206267,0.804681,100.000000,-0.000015,-0.000015,32.190002,11.000000,0.140466,0.920294,1.206855,-4.944214,9.145229,115.000000,0.977000,0.140000,0.000000
0.001,31.671757,13.637052,59.717144,31.734861,33.180965,58.735031,73.811867,-0.072275,76.562210,0.526314,0.461968,0.121214,0.771132,-0.741872,0.982488,-5.503401,17.724266,9231.856445,100.000000,0.970410,21.000000,6.288627,549.804626,267.665619,999.023926,0.000000,1.040000,60.000000,6.000000,74.999725,31.499748,0.205765,0.804681,100.000000,-0.000015,-0.000015,32.520000,11.000000,0.146075,0.921569,1.208001,-4.789516,9.397330,115.000000,0.976000,0.140000,0.000000
0.001,31.671757,13.637465,59.556347,32.079342,33.534271,58.812057,73.785416,-0.072931,76.562210,0.528063,0.469897,0.143183,0.911753,-1.005798,0.128300,-3.336158,18.310661,9217.947266,100.000000,0.975007,21.000000,6.288225,549.804626,267.650940,999.023926,0.000000,1.040000,60.000000,6.000000,74.999725,31.499748,0.205262,0.804681,100.000000,-0.000015,-0.000015,32.849998,11.000000,0.151683,0.922843,1.209147,-4.634817,9.649431,115.000000,0.975000,0.140000,0.000000
0.001,31.671757,13.637877,59.431129,32.438103,33.895088,58.588100,73.758972,-0.073587,76.562210,0.527480,0.474994,0.165152,1.052374,-1.269724,-0.725888,-1.168915,18.897058,9204.039063,100.000000,0.979605,21.000000,6.287824,549.804626,267.636230,999.023926,0.000000,1.040000,60.000000,6.000000,74.999725,31.499748,0.204760,0.804681,100.000000,-0.000015,-0.000015,33.180000,11.000000,0.157291,0.924118,1.210293,-4.480119,9.901533,115.000000,0.974000,0.140000,0.000000
0.002,31.671757,13.638290,59.305916,32.796860,34.255905,58.364143,73.754395,-0.073279,76.588806,0.528646,0.475560,0.164700,1.039566,-1.179688,1.907779,1.555863,19.132353,9190.130859,100.000000,0.984202,21.000000,6.287422,549.804626,267.621552,999.023926,0.000000,1.040000,60.000000,6.000000,74.999725,31.499748,0.204257,0.804681,100.000000,-0.000015,-0.000015,33.510002,11.000000,0.162900,0.925393,1.211438,-4.325420,10.153635,115.000000,0.973000,0.140000,0.000000
0.002,31.671757,13.638703,59.180698,33.155621,34.616726,58.140182,73.749809,-0.072971,76.615395,0.511738,0.474428,0.164248,1.026758,-1.089653,4.541445,4.280642,19.367647,9176.222656,100.000000,0.988799,21.000000,6.287020,549.804626,267.606873,999.023926,0.000000,1.040000,60.000000,6.000000,74.999725,31.499748,0.203754,0.804681,100.000000,-0.000015,-0.000015,33.840000,11.000000,0.168508,0.926667,1.212584,-4.170722,10.405736,115.000000,0.972000,0.140000,0.000000
0.002,31.671757,13.639117,59.055485,33.514378,34.977543,57.916225,73.749809,-0.072919,76.619980,0.514071,0.468198,0.132899,1.063219,-0.898826,3.410535,2.067653,18.261030,9162.313477,100.000000,0.993397,21.000000,6.286618,549.804626,267.592194,999.023926,0.000000,1.040000,60.000000,6.000000,74.999725,31.499748,0.203252,0.804681,100.000000,-0.000015,-0.000015,34.169998,11.000000,0.174117,0.927942,1.213730,-4.016023,10.657837,115.000000,0.971000,0.140000,0.000000
0.002,31.671757,13.639530,58.930267,33.873138,35.338360,57.692268,73.749809,-0.072867,76.624565,0.516986,0.466499,0.101549,1.099680,-0.707999,2.279624,-0.145336,17.154413,9148.405273,100.000000,0.997994,21.000000,6.286216,549.804626,267.577515,999.023926,0.000000,1.040000,60.000000,6.000000,74.999725,31.499748,0.202749,0.804681,100.000000,-0.000015,-0.000015,34.500000,11.000000,0.179725,0.929217,1.214876,-3.861324,10.909939,115.000000,0.970000,0.140000,0.000000
0.002,31.671757,13.639943,58.567028,34.198669,35.587021,57.715481,73.749809,-0.072508,76.624565,0.508823,0.474994,0.077048,0.973031,-0.986282,3.653628,1.175595,16.463236,9130.943359,100.000000,0.994344,21.000000,6.277901,549.804626,267.494385,999.023926,0.000000,1.040000,60.000000,6.000000,74.999725,31.567205,0.202924,0.804681,100.000000,-0.000015,-0.000015,34.830002,11.000000,0.187500,0.928770,1.205709,-3.767359,11.235379,115.000000,0.970000,0.140000,0.000000
0.002,31.671757,13.640356,58.203793,34.524200,35.835682,57.738693,73.749809,-0.072150,76.624565,0.514071,0.477826,0.052547,0.846382,-1.264565,5.027631,2.496527,15.772059,9113.482422,100.000000,0.990694,21.000000,6.269586,549.804626,267.411285,999.023926,0.000000,1.040000,60.000000,6.000000,74.999725,31.634663,0.203099,0.804681,100.000000,-0.000015,-0.000015,35.160000,11.000000,0.195276,0.928324,1.196542,-3.673394,11.560819,115.000000,0.970000,0.140000,0.000000
0.002,31.671757,13.640769,57.840553,34.849731,36.084343,57.761909,73.749809,-0.071982,76.624565,0.512321,0.478392,0.067034,0.954335,-1.122893,4.960372,1.292821,15.327207,9096.020508,100.000000,0.987044,21.000000,6.261271,549.804626,267.328156,999.023926,0.000000,1.040000,60.000000,6.000000,74.999725,31.702120,0.203273,0.804681,100.000000,-0.000015,-0.000015,35.489998,11.000000,0.203051,0.927878,1.187374,-3.579429,11.886259,115.000000,0.970000,0.140000,0.000000
0.002,31.671757,13.641182,57.477318,35.175262,36.333004,57.785122,73.749809,-0.071814,76.624565,0.522816,0.474428,0.081520,1.062288,-0.981220,4.893114,0.089115,14.882354,9078.558594,100.000000,0.983394,21.000000,6.252955,549.804626,267.245056,999.023926,0.000000,1.040000,60.000000,6.000000,74.999725,31.769577,0.203448,0.804681,100.000000,-0.000015,-0.000015,35.820000,11.000000,0.210826,0.927432,1.178207,-3.485464,12.211699,115.000000,0.970000,0.140000,0.000000
0.002,31.671757,13.641595,57.114079,35.500793,36.581665,57.808334,73.749809,-0.072366,76.624565,0.522816,0.469331,0.130822,0.984841,-1.123477,4.935390,-0.711450,13.667280,9061.097656,100.000000,0.979744,21.000000,6.244640,549.804626,267.161926,999.023926,0.000000,1.040000,60.000000,6.000000,74.999725,31.837034,0.203622,0.804681,100.000000,-0.000015,-0.000015,36.150002,11.000000,0.218602,0.926986,1.169039,-3.391499,12.537139,115.000000,0.970000,0.140000,0.000000
0.002,31.671757,13.642008,56.710022,35.827362,36.847160,57.725506,73.749809,-0.072919,76.624565,0.521650,0.476127,0.180124,0.907395,-1.265733,4.977667,-1.512014,12.452207,9043.635742,100.000000,0.976094,21.000000,6.236325,549.804626,267.078796,999.023926,0.000000,1.040000,60.000000,6.000000,74.999725,31.904491,0.203797,0.804681,100.000000,-0.000015,-0.000015,36.480000,11.000000,0.226377,0.926540,1.159872,-3.297534,12.862579,115.000000,0.970000,0.140000,0.000000
0.003,31.671757,13.642421,56.305965,36.153931,37.112659,57.642673,73.723007,-0.072553,76.651154,0.525731,0.477259,0.210370,1.106633,-1.094665,4.121558,-2.452678,11.757354,9026.173828,100.000000,0.972444,21.000000,6.228009,549.804626,266.995697,999.023926,0.000000,1.040000,60.000000,6.000000,74.999725,31.971949,0.203972,0.804681,100.000000,-0.000015,-0.000015,36.809998,11.000000,0.234152,0.926094,1.150705,-3.203569,13.188019,115.000000,0.970000,0.140000,0.000000
0.003,31.671757,13.642834,55.901905,36.480503,37.378155,57.559845,73.696205,-0.072187,76.677750,0.522233,0.467632,0.240616,1.305871,-0.923598,3.265448,-3.393341,11.062501,9008.711914,100.000000,0.968794,21.000000,6.219694,549.804626,266.912567,999.023926,0.000000,1.040000,60.000000,6.000000,74.999725,32.039406,0.204146,0.804681,100.000000,-0.000015,-0.000015,37.139999,11.000000,0.241928,0.925648,1.141538,-3.109604,13.513459,115.000000,0.970000,0.140000,0.000000
0.003,31.671757,13.643247,55.497849,36.807072,37.643654,57.477013,73.718063,-0.072234,76.682335,0.522233,0.474994,0.215216,1.103073,-0.969443,3.602703,-4.359737,10.479780,8991.250977,100.000000,0.965144,21.000000,6.211379,549.804626,266.829468,999.023926,0.000000,1.040000,60.000000,6.000000,74.999725,32.106865,0.204321,0.804681,100.000000,-0.000015,-0.000015,37.470001,11.000000,0.249703,0.925201,1.132370,-3.015639,13.838899,115.000000,0.970000,0.140000,0.000000
0.003,31.671757,13.643660,55.093792,37.133640,37.909149,57.394184,73.739929,-0.072281,76.686920,0.526314,0.471030,0.189815,0.900276,-1.015288,3.939959,-5.326133,9.897059,8973.789063,100.000000,0.961494,21.000000,6.203063,549.804626,266.746338,999.023926,0.000000,1.040000,60.000000,6.000000,74.999725,32.174320,0.204496,0.804681,100.000000,-0.000015,-0.000015,37.799999,11.000000,0.257479,0.924755,1.123203,-2.921674,14.164339,115.000000,0.970000,0.140000,0.000000
0.003,31.671757,13.644073,54.864323,37.516022,38.289394,57.368332,73.744873,-0.072667,76.660629,0.517569,0.479525,0.166059,1.076493,-1.055001,2.368022,1.301398,9.676472,8948.628906,100.000000,0.964597,21.000000,6.190730,549.804626,266.731659,999.023926,0.082318,1.040000,60.000000,6.000000,74.999725,32.234085,0.205273,0.804681,100.000000,-0.000015,-0.000015,38.130001,11.000000,0.267230,0.923353,1.115754,-2.827708,14.547075,115.000000,0.970000,0.140000,0.000000
0.003,31.671757,13.644486,54.634850,37.898403,38.669640,57.342480,73.749809,-0.073053,76.634346,0.523982,0.477259,0.142304,1.252710,-1.094714,0.796085,7.928929,9.455883,8923.468750,100.000000,0.967699,21.000000,6.178396,549.804626,266.716980,999.023926,0.164637,1.040000,60.000000,6.000000,74.999725,32.293854,0.206051,0.804681,100.000000,-0.000015,-0.000015,38.459999,11.000000,0.276981,0.921951,1.108306,-2.733743,14.929811,115.000000,0.970000,0.140000,0.000000
0.003,31.671757,13.644899,54.405380,38.280788,39.049881,57.316631,73.749809,-0.073428,76.656052,0.517569,0.475560,0.176142,0.963850,-1.130582,1.039178,6.796702,9.584559,8898.308594,100.000000,0.970802,21.000000,6.166062,549.804626,266.702301,999.023926,0.246955,1.040000,60.000000,6.000000,74.999725,32.353619,0.206828,0.804681,100.000000,-0.000015,-0.000015,38.790001,11.000000,0.286732,0.920549,1.100858,-2.639778,15.312547,115.000000,0.970000,0.140000,0.000000
0.003,31.671757,13.645312,54.175907,38.663170,39.430126,57.290779,73.749809,-0.073804,76.677750,0.516986,0.478392,0.209980,0.674989,-1.166451,1.282271,5.664475,9.713236,8873.148438,100.000000,0.973905,21.000000,6.153728,549.804626,266.687622,999.023926,0.329273,1.040000,60.000000,6.000000,74.999725,32.413387,0.207606,0.804681,100.000000,-0.000015,-0.000015,39.119999,11.000000,0.296483,0.919147,1.093409,-2.545813,15.695282,115.000000,0.970000,0.140000,0.000000
0.003,31.671757,13.645725,53.946438,39.045551,39.810371,57.264927,73.749809,-0.073807,76.682335,0.519318,0.469331,0.259785,0.891726,-1.075198,-1.062182,2.130554,9.485294,8847.988281,100.000000,0.977008,21.000000,6.141395,549.804626,266.672913,999.023926,0.411591,1.040000,60.000000,6.000000,74.999725,32.473152,0.208384,0.804681,100.000000,-0.000015,-0.000015,39.450001,11.000000,0.306234,0.917745,1.085961,-2.451848,16.078018,115.000000,0.970000,0.140000,0.000000
0.004,31.671757,13.646138,54.120472,39.248814,40.168858,57.352505,73.749809,-0.073810,76.686920,0.509406,0.466499,0.309590,1.108463,-0.983946,-3.406636,-1.403366,9.257354,8822.828125,100.000000,0.980111,21.000000,6.129061,549.804626,266.658234,999.023926,0.493910,1.040000,60.000000,6.000000,74.999725,32.532917,0.209161,0.804681,100.000000,-0.000015,-0.000015,39.780003,11.000000,0.315985,0.916343,1.078512,-2.357883,16.460754,115.000000,0.970000,0.140000,0.000000
0.004,31.671757,13.646551,54.294506,39.452076,40.527344,57.440083,73.749809,-0.072297,76.686920,0.511738,0.474994,0.329866,0.935240,-1.088777,-2.899312,0.100551,10.441177,8797.667969,100.000000,0.983214,21.000000,6.116727,549.804626,266.643555,999.023926,0.576228,1.040000,60.000000,6.000000,74.999725,32.592686,0.209939,0.804681,100.000000,-0.000015,-0.000015,40.110001,11.000000,0.325736,0.914940,1.071064,-2.263918,16.843491,115.000000,0.970000,0.140000,0.000000
0.004,31.671757,13.646964,54.468540,39.655334,40.885830,57.527664,73.749809,-0.070783,76.686920,0.509989,0.470463,0.350143,0.762016,-1.193607,-2.391987,1.604469,11.625001,8772.507813,100.000000,0.986317,21.000000,6.104393,549.804626,266.628876,999.023926,0.658546,1.040000,60.000000,6.000000,74.999725,32.652451,0.210716,0.804681,100.000000,-0.000015,-0.000015,40.440002,11.000000,0.335487,0.913538,1.063615,-2.169953,17.226225,115.000000,0.970000,0.140000,0.000000
0.004,31.671757,13.647377,54.642574,39.858597,41.244316,57.615242,73.723007,-0.071581,76.686920,0.502410,0.478392,0.360211,0.838798,-1.099435,-2.383339,-1.449113,13.077207,8747.347656,100.000000,0.989420,21.000000,6.092060,549.804626,266.614197,999.023926,0.740865,1.040000,60.000000,6.000000,74.999725,32.712219,0.211494,0.804681,100.000000,-0.000015,-0.000015,40.770000,11.000000,0.345238,0.912136,1.056167,-2.075988,17.608961,115.000000,0.970000,0.140000,0.000000
0.004,31.671757,13.647790,54.816608,40.061859,41.602802,57.702820,73.696205,-0.072378,76.686920,0.514071,0.471030,0.370280,0.915579,-1.005262,-2.374692,-4.502695,14.529412,8722.187500,100.000000,0.992523,21.000000,6.079726,549.804626,266.599518,999.023926,0.823183,1.040000,60.000000,6.000000,74.999725,32.771984,0.212272,0.804681,100.000000,-0.000015,-0.000015,41.100002,11.000000,0.354989,0.910734,1.048718,-1.982023,17.991697,115.000000,0.970000,0.140000,0.000000
0.004,31.671757,13.648203,55.144817,40.366882,41.993408,57.655602,73.691620,-0.072177,76.686920,0.527480,0.473295,0.374923,0.831545,-1.006674,-1.893310,-2.895848,15.577206,8721.466797,100.000000,0.996910,21.000000,6.078783,549.804626,266.599518,999.023926,0.754584,1.040000,60.000000,5.995896,74.999725,32.721741,0.212314,0.805040,100.000000,-0.000015,-0.000015,41.420002,11.000000,0.364931,0.910097,1.045281,-1.860556,18.351515,115.000000,0.969000,0.140000,0.000000
0.004,31.671757,13.648616,55.473026,40.671906,42.384014,57.608383,73.687035,-0.071976,76.686920,0.537975,0.478392,0.379567,0.747512,-1.008085,-1.411929,-1.289000,16.625000,8720.747070,100.000000,1.001297,21.000000,6.077840,549.804626,266.599518,999.023926,0.685986,1.040000,60.000000,5.991792,74.999725,32.671494,0.212357,0.805399,100.000000,-0.000015,-0.000015,41.740002,11.000000,0.374873,0.909460,1.041843,-1.739088,18.711332,115.000000,0.968000,0.140000,0.000000
0.004,31.671757,13.649029,55.801239,40.976929,42.774616,57.561165,73.687035,-0.072426,76.686920,0.524565,0.480091,0.358639,0.823994,-0.886075,-2.152738,-2.712861,18.172794,8720.027344,100.000000,1.005684,21.000000,6.076897,549.804626,266.599518,999.023926,0.617387,1.040000,60.000000,5.987688,74.999725,32.621250,0.212400,0.805758,100.000000,-0.000015,-0.000015,42.060001,11.000000,0.384816,0.908822,1.038405,-1.617621,19.071150,115.000000,0.967000,0.140000,0.000000
0.005,31.671757,13.649443,56.129448,41.281952,43.165222,57.513947,73.687035,-0.072876,76.686920,0.514654,0.487454,0.337711,0.900475,-0.764064,-2.893546,-4.136723,19.720589,8719.306641,100.000000,1.010071,21.000000,6.075954,549.804626,266.599518,999.023926,0.548789,1.040000,60.000000,5.983583,74.999725,32.571003,0.212443,0.806117,100.000000,-0.000015,-0.000015,42.380001,11.000000,0.394758,0.908185,1.034967,-1.496154,19.430967,115.000000,0.966000,0.140000,0.000000
0.005,31.671757,13.649856,56.457657,41.586975,43.555828,57.466728,73.687035,-0.072604,76.713516,0.506491,0.488020,0.332784,0.879683,-0.874394,-1.756871,-1.291859,20.972427,8718.585938,100.000000,1.014459,21.000000,6.075012,549.804626,266.599518,999.023926,0.480190,1.040000,60.000000,5.979479,74.999725,32.520760,0.212485,0.806476,100.000000,-0.000015,-0.000015,42.700001,11.000000,0.404700,0.907548,1.031530,-1.374687,19.790783,115.000000,0.965000,0.140000,0.000000
0.005,31.671757,13.650269,56.596111,41.854618,43.844639,57.709679,73.687035,-0.072333,76.740105,0.507657,0.481790,0.327857,0.858891,-0.984725,-0.620195,1.553004,22.224266,8717.866211,100.000000,1.018846,21.000000,6.074069,549.804626,266.599518,999.023926,0.411591,1.040000,60.000000,5.975375,74.999725,32.470516,0.212528,0.806835,100.000000,-0.000015,-0.000015,43.020000,11.000000,0.414642,0.906910,1.028092,-1.253220,20.150600,115.000000,0.964000,0.140000,0.000000
0.005,31.671757,13.650681,56.734566,42.122257,44.133446,57.952629,73.687035,-0.072087,76.744995,0.514654,0.473295,0.387362,0.878486,-0.917417,-1.398477,2.293526,22.994486,8717.146484,100.000000,1.023233,21.000000,6.073126,549.804626,266.599518,999.023926,0.342993,1.040000,60.000000,5.971271,74.999725,32.420269,0.212571,0.807194,100.000000,-0.000015,-0.000015,43.340000,11.000000,0.424584,0.906273,1.024654,-1.131753,20.510418,115.000000,0.963000,0.140000,0.000000
0.005,31.671757,13.651094,56.873024,42.389900,44.422256,58.195580,73.687035,-0.071842,76.749886,0.519318,0.470463,0.446868,0.898080,-0.850109,-2.176759,3.034049,23.764706,8716.425781,100.000000,1.027620,21.000000,6.072183,549.804626,266.599518,999.023926,0.274394,1.040000,60.000000,5.967166,74.999725,32.370026,0.212613,0.807553,100.000000,-0.000015,-0.000015,43.660000,11.000000,0.434527,0.905636,1.021217,-1.010286,20.870235,115.000000,0.962000,0.140000,0.000000
0.005,31.671757,13.651507,57.011478,42.657539,44.711063,58.438530,73.713486,-0.072302,76.749886,0.526897,0.471030,0.512169,1.095888,-0.815117,-1.587763,-0.354055,25.095589,8715.705078,100.000000,1.032007,21.000000,6.071240,549.804626,266.599518,999.023926,0.205796,1.040000,60.000000,5.963062,74.999725,32.319778,0.212656,0.807912,100.000000,-0.000015,-0.000015,43.980000,11.000000,0.444469,0.904998,1.017779,-0.888819,21.230053,115.000000,0.961000,0.140000,0.000000
0.005,31.671757,13.651920,57.149933,42.925182,44.999874,58.681480,73.739929,-0.072763,76.749886,0.532728,0.470463,0.577469,1.293695,-0.780125,-0.998767,-3.742159,26.426472,8714.985352,100.000000,1.036394,21.000000,6.070298,549.804626,266.599518,999.023926,0.137197,1.040000,60.000000,5.958958,74.999725,32.269535,0.212699,0.808271,100.000000,-0.000015,-0.000015,44.299999,11.000000,0.454411,0.904361,1.014341,-0.767352,21.589870,115.000000,0.960000,0.140000,0.000000
0.005,31.671757,13.652333,57.126766,43.205803,45.325726,58.625294,73.744873,-0.072772,76.749886,0.523982,0.470463,0.573477,1.196255,-0.926128,-1.663669,-2.172480,27.334560,8721.739258,100.000000,1.031179,21.000000,6.078613,549.804626,266.599518,999.023926,0.123477,1.040000,60.000000,5.960933,74.999725,32.311577,0.212429,0.808693,100.000000,-0.000015,-0.000015,44.610001,11.000000,0.459255,0.904871,1.000590,-0.610362,21.658627,115.000000,0.960000,0.140000,0.000000
0.006,31.671757,13.652746,57.103596,43.486423,45.651573,58.569107,73.749809,-0.072781,76.749886,0.515237,0.476127,0.569484,1.098815,-1.072132,-2.328572,-0.602802,28.242647,8728.494141,100.000000,1.025963,21.000000,6.086928,549.804626,266.599518,999.023926,0.109758,1.040000,60.000000,5.962908,74.999725,32.353619,0.212158,0.809115,100.000000,-0.000015,-0.000015,44.919998,11.000000,0.464098,0.905381,0.986839,-0.453371,21.727381,115.000000,0.960000,0.140000,0.000000
0.006,31.671757,13.653159,57.080429,43.767048,45.977425,58.512917,73.723007,-0.071730,76.749886,0.515820,0.477259,0.530678,1.017177,-0.946958,-2.201741,-1.840818,27.974266,8735.248047,100.000000,1.020748,21.000000,6.095243,549.804626,266.599518,999.023926,0.096038,1.040000,60.000000,5.964883,74.999725,32.395660,0.211888,0.809537,100.000000,-0.000015,-0.000015,45.230000,11.000000,0.468942,0.905891,0.973088,-0.296381,21.796135,115.000000,0.960000,0.140000,0.000000
0.006,31.671757,13.653572,57.057259,44.047668,46.303272,58.456730,73.696205,-0.070679,76.749886,0.510572,0.475560,0.491872,0.935539,-0.821784,-2.074909,-3.078834,27.705883,8742.001953,100.000000,1.015533,21.000000,6.103559,549.804626,266.599518,999.023926,0.082318,1.040000,60.000000,5.966858,74.999725,32.437702,0.211618,0.809959,100.000000,-0.000015,-0.000015,45.540001,11.000000,0.473786,0.906400,0.959337,-0.139390,21.864891,115.000000,0.960000,0.140000,0.000000
0.006,31.671757,13.653985,57.034092,44.328289,46.629124,58.400543,73.691620,-0.071092,76.749886,0.522816,0.478958,0.483946,1.033046,-0.946569,-0.384789,-1.646395,27.534927,8748.755859,100.000000,1.010317,21.000000,6.111874,549.804626,266.599518,999.023926,0.068599,1.040000,60.000000,5.968833,74.999725,32.479744,0.211348,0.810381,100.000000,-0.000015,-0.000015,45.849998,11.000000,0.478629,0.906910,0.945586,0.017600,21.933647,115.000000,0.960000,0.140000,0.000000
0.006,31.671757,13.654398,57.035748,44.715603,46.976990,58.303734,73.687035,-0.071506,76.749886,0.524565,0.472162,0.476020,1.130552,-1.071353,1.305331,-0.213956,27.363972,8755.510742,100.000000,1.005102,21.000000,6.120189,549.804626,266.599518,999.023926,0.054879,1.040000,60.000000,5.970809,74.999725,32.521786,0.211078,0.810803,100.000000,-0.000015,-0.000015,46.160000,11.000000,0.483473,0.907420,0.931835,0.174591,22.002401,115.000000,0.960000,0.140000,0.000000
0.006,31.671757,13.654812,57.037403,45.102917,47.324856,58.206921,73.713486,-0.071767,76.749886,0.523982,0.474994,0.496073,0.970303,-1.031202,1.729062,-4.090976,27.560661,8762.264648,100.000000,0.999886,21.000000,6.128504,549.804626,266.599518,999.023926,0.041159,1.040000,60.000000,5.972784,74.999725,32.563828,0.210807,0.811226,100.000000,-0.000015,-0.000015,46.470001,11.000000,0.488317,0.907930,0.918084,0.331581,22.071156,115.000000,0.960000,0.140000,0.000000
0.006,31.671757,13.655225,57.039055,45.490234,47.672722,58.110111,73.739929,-0.072028,76.749886,0.522816,0.476127,0.516126,0.810055,-0.991051,2.152793,-7.967996,27.757353,8769.018555,100.000000,0.994671,21.000000,6.136819,549.804626,266.599518,999.023926,0.027439,1.040000,60.000000,5.974759,74.999725,32.605869,0.210537,0.811648,100.000000,-0.000015,-0.000015,46.780003,11.000000,0.493160,0.908440,0.904333,0.488571,22.139912,115.000000,0.960000,0.140000,0.000000
0.006,31.671757,13.655638,57.040710,45.877548,48.020588,58.013298,73.744873,-0.072211,76.749886,0.519318,0.477259,0.530784,0.909923,-0.893229,1.905857,-5.843640,27.838236,8775.773438,100.000000,0.989455,21.000000,6.145135,549.804626,266.599518,999.023926,0.013720,1.040000,60.000000,5.976734,74.999725,32.647911,0.210267,0.812070,100.000000,-0.000015,-0.000015,47.090000,11.000000,0.498004,0.908950,0.890582,0.645562,22.208668,115.000000,0.960000,0.140000,0.000000
0.007,31.671757,13.656051,57.042366,46.264862,48.368454,57.916489,73.749809,-0.072394,76.749886,0.524565,0.477826,0.545442,1.009792,-0.795406,1.658921,-3.719285,27.919119,8782.527344,100.000000,0.984240,21.000000,6.153450,549.804626,266.599518,999.023926,0.000000,1.040000,60.000000,5.978709,74.999725,32.689953,0.209997,0.812492,100.000000,-0.000015,-0.000015,47.400002,11.000000,0.502848,0.909460,0.876831,0.802552,22.277422,115.000000,0.960000,0.140000,0.000000
0.007,31.671757,13.656464,56.866127,46.535618,48.636024,57.637661,73.749809,-0.072940,76.776474,0.520484,0.481790,0.541075,0.924627,-0.897074,3.908251,-4.382610,27.757355,8763.785156,100.000000,0.990325,21.000000,6.141317,549.804626,266.599518,999.023926,0.000000,1.040000,60.000000,5.980838,74.999725,32.770885,0.209997,0.812128,100.000000,-0.000015,-0.000015,47.730003,11.000000,0.500490,0.908886,0.867664,0.961834,22.009277,115.000000,0.959000,0.140000,0.000000
0.007,31.671757,13.656877,56.689884,46.806374,48.903595,57.358837,73.749809,-0.073486,76.803070,0.514071,0.482923,0.536709,0.839463,-0.998741,6.157581,-5.045935,27.595589,8745.042969,100.000000,0.996411,21.000000,6.129184,549.804626,266.599518,999.023926,0.000000,1.040000,60.000000,5.982967,74.999725,32.851822,0.209997,0.811765,100.000000,-0.000015,-0.000015,48.060001,11.000000,0.498131,0.908312,0.858496,1.121117,21.741133,115.000000,0.958000,0.140000,0.000000
0.007,31.671757,13.657290,56.513645,47.077133,49.171162,57.080009,73.749809,-0.072929,76.781067,0.529229,0.476693,0.520192,1.000776,-0.931336,4.114832,-5.937993,26.566177,8726.300781,100.000000,1.002496,21.000000,6.117052,549.804626,266.599518,999.023926,0.000000,1.040000,60.000000,5.985096,74.999725,32.932755,0.209997,0.811401,100.000000,-0.000015,-0.000015,48.389999,11.000000,0.495773,0.907739,0.849329,1.280399,21.472988,115.000000,0.957000,0.140000,0.000000
0.007,31.671757,13.657702,56.337402,47.347889,49.438732,56.801186,73.749809,-0.072373,76.759056,0.532145,0.474994,0.503675,1.162090,-0.863931,2.072083,-6.830050,25.536766,8707.558594,100.000000,1.008582,21.000000,6.104918,549.804626,266.599518,999.023926,0.000000,1.040000,60.000000,5.987225,74.999725,33.013687,0.209997,0.811038,100.000000,-0.000015,-0.000015,48.720001,11.000000,0.493415,0.907165,0.840162,1.439681,21.204844,115.000000,0.956000,0.140000,0.000000
0.007,31.671757,13.658115,56.161163,47.618645,49.706303,56.522358,73.749809,-0.072881,76.781067,0.517569,0.471596,0.505096,0.985606,-0.890552,3.097301,-1.823663,24.112133,8688.816406,100.000000,1.014668,21.000000,6.092786,549.804626,266.599518,999.023926,0.000000,1.040000,60.000000,5.989354,74.999725,33.094620,0.209997,0.810674,100.000000,-0.000015,-0.000015,49.050003,11.000000,0.491057,0.906592,0.830994,1.598964,20.936699,115.000000,0.955000,0.140000,0.000000
0.007,31.671757,13.658528,56.148201,48.143284,49.925434,56.274658,73.749809,-0.073388,76.803070,0.515237,0.473861,0.506516,0.809123,-0.917173,4.122519,3.182725,22.687500,8670.075195,100.000000,1.020753,21.000000,6.080653,549.804626,266.599518,999.023926,0.000000,1.040000,60.000000,5.991484,74.999725,33.175556,0.209997,0.810311,100.000000,-0.000015,-0.000015,49.380001,11.000000,0.488699,0.906018,0.821827,1.758246,20.668556,115.000000,0.954000,0.140000,0.000000
0.008,31.671757,13.658941,56.135239,48.667923,50.144569,56.026958,73.749809,-0.073006,76.807655,0.520484,0.477826,0.546814,0.908326,-0.895030,2.444889,3.217035,19.143383,8651.333008,100.000000,1.026839,21.000000,6.068520,549.804626,266.599518,999.023926,0.000000,1.040000,60.000000,5.993613,74.999725,33.256489,0.209997,0.809947,100.000000,-0.000015,-0.000015,49.709999,11.000000,0.486341,0.905444,0.812660,1.917528,20.400412,115.000000,0.953000,0.140000,0.000000
0.008,31.671757,13.659354,56.122276,49.192566,50.363701,55.779263,73.749809,-0.072623,76.812241,0.518735,0.476693,0.587111,1.007529,-0.872886,0.767260,3.251345,15.599265,8632.590820,100.000000,1.032924,21.000000,6.056387,549.804626,266.599518,999.023926,0.000000,1.040000,60.000000,5.995742,74.999725,33.337421,0.209997,0.809584,100.000000,-0.000015,-0.000015,50.040001,11.000000,0.483983,0.904871,0.803492,2.076810,20.132267,115.000000,0.952000,0.140000,0.000000
0.008,31.671757,13.659768,56.109314,49.717205,50.582836,55.531563,73.749809,-0.072536,76.812241,0.524565,0.480658,0.611403,0.970503,-0.919363,-0.447244,1.973301,11.545957,8613.848633,100.000000,1.039010,21.000000,6.044254,549.804626,266.599518,999.023926,0.000000,1.040000,60.000000,5.997871,74.999725,33.418358,0.209997,0.809220,100.000000,-0.000015,-0.000015,50.370003,11.000000,0.481625,0.904297,0.794325,2.236093,19.864122,115.000000,0.951000,0.140000,0.000000
0.008,31.671757,13.660181,56.096352,50.241844,50.801968,55.283863,73.749809,-0.072449,76.812241,0.515237,0.476693,0.635695,0.933476,-0.965841,-1.661748,0.695256,7.492648,8595.106445,100.000000,1.045095,21.000000,6.032122,549.804626,266.599518,999.023926,0.000000,1.040000,60.000000,6.000000,74.999725,33.499290,0.209997,0.808857,100.000000,-0.000015,-0.000015,50.700001,11.000000,0.479267,0.903724,0.785158,2.395375,19.595978,115.000000,0.950000,0.140000,0.000000
0.008,31.671757,13.660594,55.934177,50.583988,51.021358,55.521801,73.749809,-0.072319,76.812241,0.519318,0.478958,0.563390,0.996718,-0.911674,-0.683611,-3.107425,4.492648,8602.292969,100.000000,1.038939,21.000000,6.033373,549.804626,266.599518,999.023926,0.000000,1.040000,60.066628,6.000000,74.999725,33.475853,0.209762,0.808439,100.000000,-0.000015,-0.000015,51.020000,11.100000,0.471300,0.899454,0.780001,2.492778,19.144487,115.000000,0.950000,0.141000,0.000000
0.008,31.671757,13.661007,55.772003,50.926132,51.240749,55.759739,73.749809,-0.072189,76.812241,0.516403,0.477259,0.491086,1.059959,-0.857507,0.294526,-6.910107,1.492648,8609.479492,100.000000,1.032782,21.000000,6.034626,549.804626,266.599518,999.023926,0.000000,1.040000,60.133259,6.000000,74.999725,33.452415,0.209527,0.808022,100.000000,-0.000015,-0.000015,51.340000,11.200000,0.463334,0.895184,0.774845,2.590181,18.692997,115.000000,0.950000,0.142000,0.000000
0.008,31.671757,13.661420,55.609825,51.268280,51.460140,55.997681,73.749809,-0.072167,76.812241,0.516986,0.473295,0.361054,1.022699,-0.768834,-0.552936,-2.615650,-0.448529,8616.665039,100.000000,1.026626,21.000000,6.035877,549.804626,266.599518,999.023926,0.000000,1.040000,60.199886,6.000000,74.999725,33.428978,0.209292,0.807604,100.000000,-0.000015,-0.000015,51.660000,11.300000,0.455367,0.890913,0.769688,2.687583,18.241507,115.000000,0.950000,0.143000,0.000000
0.009,31.671757,13.661833,55.447651,51.610424,51.679531,56.235619,73.749809,-0.072144,76.812241,0.516986,0.478958,0.231021,0.985440,-0.680161,-1.400399,1.678807,-2.389705,8623.851563,100.000000,1.020469,21.000000,6.037129,549.804626,266.599518,999.023926,0.000000,1.040000,60.266514,6.000000,74.999725,33.405540,0.209057,0.807186,100.000000,-0.000015,-0.000015,51.980000,11.400000,0.447401,0.886643,0.764531,2.784986,17.790016,115.000000,0.950000,0.144000,0.000000
0.009,31.671757,13.662246,55.285477,51.952568,51.898922,56.473557,73.749809,-0.072144,76.812241,0.512904,0.465366,0.176868,0.992027,-0.763431,1.344726,6.536519,-3.488970,8631.038086,100.000000,1.014313,21.000000,6.038381,549.804626,266.599518,999.023926,0.000000,1.040000,60.333145,6.000000,74.999725,33.382103,0.208822,0.806769,100.000000,-0.000015,-0.000015,52.300003,11.500000,0.439434,0.882373,0.759375,2.882389,17.338524,115.000000,0.950000,0.145000,0.000000
0.009,31.671757,13.662659,55.370152,52.353382,52.193687,56.299717,73.749809,-0.072144,76.812241,0.514654,0.467632,0.122714,0.998614,-0.846702,4.089850,11.394230,-4.588235,8638.224609,100.000000,1.008157,21.000000,6.039633,549.804626,266.599518,999.023926,0.000000,1.040000,60.399773,6.000000,74.999725,33.358662,0.208587,0.806351,100.000000,-0.000015,-0.000015,52.620003,11.600000,0.431468,0.878103,0.754218,2.979792,16.887033,115.000000,0.950000,0.146000,0.000000
0.009,31.671757,13.663072,55.454823,52.754196,52.488457,56.125881,73.749809,-0.072118,76.812241,0.513488,0.475560,0.177299,0.880548,-0.776377,4.003374,9.081170,-5.577206,8645.411133,100.000000,1.002000,21.000000,6.040885,549.804626,266.599518,999.023926,0.000000,1.040000,60.466400,6.000000,74.999725,33.335224,0.208352,0.805934,100.000000,-0.000015,-0.000015,52.940002,11.700000,0.423501,0.873833,0.749062,3.077195,16.435543,115.000000,0.950000,0.147000,0.000000
0.009,31.671757,13.663485,55.539497,53.155006,52.783222,55.952042,73.749809,-0.072092,76.812241,0.514071,0.472729,0.231883,0.762482,-0.706052,3.916898,6.768110,-6.566176,8652.596680,100.000000,0.995844,21.000000,6.042137,549.804626,266.599518,999.023926,0.000000,1.040000,60.533028,6.000000,74.999725,33.311787,0.208117,0.805516,100.000000,-0.000015,-0.000015,53.260002,11.800000,0.415534,0.869563,0.743905,3.174598,15.984053,115.000000,0.950000,0.148000,0.000000
0.009,31.671757,13.663898,55.624168,53.555820,53.077991,55.778206,73.776253,-0.072632,76.812241,0.524565,0.475560,0.277566,0.864347,-0.755693,2.681256,4.946826,-7.562500,8659.783203,100.000000,0.989687,21.000000,6.043389,549.804626,266.599518,999.023926,0.000000,1.040000,60.599659,6.000000,74.999725,33.288349,0.207882,0.805099,100.000000,-0.000015,-0.000015,53.580002,11.900000,0.407568,0.865293,0.738748,3.272000,15.532562,115.000000,0.950000,0.149000,0.000000
0.009,31.671757,13.664310,55.708843,53.956635,53.372757,55.604366,73.802696,-0.073172,76.812241,0.522816,0.465366,0.323248,0.966211,-0.805335,1.445614,3.125542,-8.558824,8666.969727,100.000000,0.983531,21.000000,6.044641,549.804626,266.599518,999.023926,0.000000,1.040000,60.666286,6.000000,74.999725,33.264912,0.207647,0.804681,100.000000,-0.000015,-0.000015,53.900002,12.000000,0.399601,0.861023,0.733592,3.369403,15.081072,115.000000,0.950000,0.150000,0.000000
0.010,31.671757,13.664723,55.901909,54.181702,53.725285,55.732304,73.780838,-0.072983,76.812241,0.520484,0.465366,0.270599,0.861486,-1.016164,2.421829,3.111246,-7.943015,8692.673828,100.000000,0.987377,21.000000,6.061518,549.804626,266.513916,999.023926,0.000000,1.040000,60.632317,5.995787,74.999725,33.167133,0.207382,0.805052,100.000000,-0.000015,-0.000015,54.190002,12.000000,0.392208,0.853885,0.727862,3.466806,14.705212,115.000000,0.950000,0.150000,0.000000
0.010,31.671757,13.665137,56.094975,54.406769,54.077816,55.860241,73.758972,-0.072794,76.812241,0.521650,0.472729,0.217951,0.756760,-1.226994,3.398044,3.096950,-7.327206,8718.377930,100.000000,0.991223,21.000000,6.078396,549.804626,266.428314,999.023926,0.000000,1.040000,60.598343,5.991574,74.999725,33.069351,0.207117,0.805423,100.000000,-0.000015,-0.000015,54.480000,12.000000,0.384816,0.846747,0.722133,3.564209,14.329351,115.000000,0.950000,0.150000,0.000000
0.010,31.671757,13.665550,56.288036,54.631840,54.430344,55.988182,73.754395,-0.072251,76.812241,0.524565,0.478958,0.139541,0.758657,-0.907878,0.842206,4.157698,-5.216911,8744.083008,100.000000,0.995070,21.000000,6.095274,549.804626,266.342712,999.023926,0.000000,1.040000,60.564373,5.987361,74.999725,32.971573,0.206852,0.805794,100.000000,-0.000015,-0.000015,54.770000,12.000000,0.377423,0.839609,0.716403,3.661612,13.953491,115.000000,0.950000,0.150000,0.000000
0.010,31.671757,13.665963,56.481102,54.856907,54.782875,56.116119,73.749809,-0.071707,76.812241,0.519318,0.473295,0.061131,0.760553,-0.588762,-1.713633,5.218446,-3.106617,8769.787109,100.000000,0.998916,21.000000,6.112152,549.804626,266.257111,999.023926,0.000000,1.040000,60.530399,5.983149,74.999725,32.873791,0.206587,0.806165,100.000000,-0.000015,-0.000015,55.060001,12.000000,0.370030,0.832471,0.710673,3.759014,13.577631,115.000000,0.950000,0.150000,0.000000
0.010,31.671757,13.666376,56.674168,55.081974,55.135403,56.244057,73.749809,-0.072502,76.812241,0.509406,0.471596,0.086735,0.753866,-0.843052,-0.727810,2.213470,-0.466911,8795.491211,100.000000,1.002762,21.000000,6.129030,549.804626,266.171509,999.023926,0.000000,1.040000,60.496429,5.978935,74.999725,32.776012,0.206322,0.806536,100.000000,-0.000015,-0.000015,55.349998,12.000000,0.362637,0.825333,0.704944,3.856417,13.201771,115.000000,0.950000,0.150000,0.000000
0.010,31.671757,13.666789,56.912189,55.287575,55.513058,56.512333,73.749809,-0.073297,76.812241,0.519901,0.471596,0.112338,0.747179,-1.097342,0.258014,-0.791506,2.172795,8821.195313,100.000000,1.006609,21.000000,6.145907,549.804626,266.085876,999.023926,0.000000,1.040000,60.462460,5.974722,74.999725,32.678234,0.206057,0.806907,100.000000,-0.000015,-0.000015,55.639999,12.000000,0.355244,0.818195,0.699214,3.953820,12.825910,115.000000,0.950000,0.150000,0.000000
0.011,31.671757,13.667202,57.150211,55.493172,55.890709,56.780609,73.749809,-0.073401,76.838837,0.527480,0.472162,0.227953,0.779881,-1.113889,-0.304078,-4.708555,5.935662,8846.899414,100.000000,1.010455,21.000000,6.162786,549.804626,266.000275,999.023926,0.000000,1.040000,60.428486,5.970510,74.999725,32.580452,0.205792,0.807278,100.000000,-0.000015,-0.000015,55.930000,12.000000,0.347851,0.811057,0.693485,4.051223,12.450049,115.000000,0.950000,0.150000,0.000000
0.011,31.671757,13.667615,57.388229,55.698772,56.268364,57.048882,73.749809,-0.073505,76.865425,0.525148,0.460269,0.343568,0.812583,-1.130436,-0.866171,-8.625603,9.698530,8872.604492,100.000000,1.014302,21.000000,6.179663,549.804626,265.914673,999.023926,0.000000,1.040000,60.394516,5.966297,74.999725,32.482674,0.205527,0.807649,100.000000,-0.000015,-0.000015,56.220001,12.000000,0.340458,0.803919,0.687755,4.148626,12.074189,115.000000,0.950000,0.150000,0.000000
0.011,31.671757,13.668028,57.626251,55.904369,56.646015,57.317158,73.749809,-0.072847,76.843414,0.510572,0.465366,0.393166,0.704996,-1.089166,-2.176759,-9.940816,11.854780,8898.308594,100.000000,1.018148,21.000000,6.196541,549.804626,265.829071,999.023926,0.000000,1.040000,60.360542,5.962084,74.999725,32.384892,0.205263,0.808020,100.000000,-0.000015,-0.000015,56.509998,12.000000,0.333065,0.796781,0.682025,4.246028,11.698329,115.000000,0.950000,0.150000,0.000000
0.011,31.671757,13.668441,57.864273,56.109970,57.023670,57.585434,73.749809,-0.072190,76.821411,0.522816,0.475560,0.442764,0.597410,-1.047896,-3.487346,-11.256029,14.011030,8924.012695,100.000000,1.021994,21.000000,6.213419,549.804626,265.743469,999.023926,0.000000,1.040000,60.326572,5.957871,74.999725,32.287113,0.204998,0.808391,100.000000,-0.000015,-0.000015,56.799999,12.000000,0.325672,0.789643,0.676296,4.343431,11.322469,115.000000,0.950000,0.150000,0.000000
0.011,31.671757,13.668854,58.077747,56.299992,57.290722,57.866108,73.776253,-0.072749,76.843414,0.530396,0.474428,0.373027,0.725389,-1.113451,-2.308394,-10.927225,15.253677,8965.001953,100.000000,1.013754,21.000000,6.218133,549.804626,265.731506,999.023926,0.085367,1.040000,60.362232,5.960100,74.999725,32.208378,0.204998,0.808052,100.000000,-0.000015,-0.000015,57.049999,12.000000,0.323186,0.780274,0.664837,4.533653,11.184958,115.000000,0.949000,0.150000,0.000000
0.011,31.671757,13.669267,58.291222,56.490013,57.557774,58.146778,73.802696,-0.073309,76.865425,0.520484,0.473861,0.303290,0.853369,-1.179007,-1.129441,-10.598422,16.496325,9005.991211,100.000000,1.005515,21.000000,6.222847,549.804626,265.719574,999.023926,0.170734,1.040000,60.397892,5.962328,74.999725,32.129639,0.204998,0.807712,100.000000,-0.000015,-0.000015,57.299999,12.000000,0.320701,0.770906,0.653378,4.723876,11.047449,115.000000,0.948000,0.150000,0.000000
0.012,31.671757,13.669680,58.504696,56.680038,57.824825,58.427452,73.807281,-0.073480,76.870010,0.512321,0.475560,0.265246,0.831578,-1.063129,-0.005257,-6.861501,16.522060,9046.980469,100.000000,0.997275,21.000000,6.227561,549.804626,265.707642,999.023926,0.256101,1.040000,60.433556,5.964557,74.999725,32.050903,0.204998,0.807373,100.000000,-0.000015,-0.000015,57.549999,12.000000,0.318215,0.761537,0.641918,4.914097,10.909939,115.000000,0.947000,0.150000,0.000000
0.012,31.671757,13.670094,58.718170,56.870060,58.091877,58.708122,73.811867,-0.073651,76.874596,0.512321,0.467632,0.227202,0.809788,-0.947250,1.118928,-3.124580,16.547794,9087.969727,100.000000,0.989035,21.000000,6.232275,549.804626,265.695679,999.023926,0.341468,1.040000,60.469215,5.966786,74.999725,31.972168,0.204998,0.807033,100.000000,-0.000015,-0.000015,57.799999,12.000000,0.315730,0.752168,0.630459,5.104320,10.772429,115.000000,0.946000,0.150000,0.000000
0.012,31.671757,13.670506,58.931644,57.060081,58.358929,58.988796,73.811867,-0.074231,76.874596,0.522816,0.475560,0.316199,0.802836,-1.039719,1.369707,-1.743606,15.830883,9128.958984,100.000000,0.980795,21.000000,6.236989,549.804626,265.683716,999.023926,0.426836,1.040000,60.504875,5.969015,74.999725,31.893431,0.204998,0.806694,100.000000,-0.000015,-0.000015,58.049999,12.000000,0.313244,0.742800,0.619000,5.294541,10.634919,115.000000,0.945000,0.150000,0.000000
0.012,31.671757,13.670919,59.200005,57.370815,58.543354,59.221989,73.811867,-0.074811,76.874596,0.519901,0.472729,0.405196,0.795883,-1.132188,1.620487,-0.362632,15.113971,9169.948242,100.000000,0.972555,21.000000,6.241704,549.804626,265.671783,999.023926,0.512203,1.040000,60.540535,5.971243,74.999725,31.814693,0.204998,0.806354,100.000000,-0.000015,-0.000015,58.299999,12.000000,0.310759,0.733431,0.607541,5.484763,10.497409,115.000000,0.944000,0.150000,0.000000
0.012,31.671757,13.671332,59.468365,57.681549,58.727776,59.455177,73.811867,-0.073563,76.874596,0.516986,0.475560,0.486813,0.719833,-1.134476,1.042060,0.457946,13.889706,9210.937500,100.000000,0.964315,21.000000,6.246418,549.804626,265.659851,999.023926,0.597570,1.040000,60.576195,5.973472,74.999725,31.735958,0.204998,0.806015,100.000000,-0.000015,-0.000015,58.549999,12.000000,0.308273,0.724062,0.596082,5.674985,10.359900,115.000000,0.943000,0.150000,0.000000
0.012,31.671757,13.671745,59.736725,57.992287,58.912201,59.688370,73.811867,-0.072315,76.874596,0.522816,0.480658,0.568429,0.643784,-1.136763,0.463634,1.278525,12.665442,9251.926758,100.000000,0.956076,21.000000,6.251132,549.804626,265.647888,999.023926,0.682937,1.040000,60.611858,5.975701,74.999725,31.657221,0.204998,0.805675,100.000000,-0.000015,-0.000015,58.799999,12.000000,0.305788,0.714694,0.584623,5.865207,10.222389,115.000000,0.942000,0.150000,0.000000
0.013,31.671757,13.672158,60.005085,58.303020,59.096622,59.921558,73.811867,-0.073503,76.874596,0.522233,0.473295,0.516826,0.709288,-1.146302,0.239758,0.809623,11.830883,9292.916016,100.000000,0.947836,21.000000,6.255846,549.804626,265.635925,999.023926,0.768304,1.040000,60.647518,5.977930,74.999725,31.578485,0.204998,0.805336,100.000000,-0.000015,-0.000015,59.049999,12.000000,0.303302,0.705325,0.573163,6.055429,10.084880,115.000000,0.941000,0.150000,0.000000
0.013,31.671757,13.672571,60.273445,58.613754,59.281048,60.154751,73.811867,-0.074691,76.874596,0.525148,0.474994,0.465223,0.774791,-1.155841,0.015882,0.340721,10.996324,9333.905273,100.000000,0.939596,21.000000,6.260560,549.804626,265.623993,999.023926,0.853671,1.040000,60.683178,5.980158,74.999725,31.499748,0.204998,0.804996,100.000000,-0.000015,-0.000015,59.299999,12.000000,0.300816,0.695956,0.561704,6.245651,9.947370,115.000000,0.940000,0.150000,0.000000
0.013,31.671757,13.672275,60.548149,58.838562,59.545509,60.453098,73.811867,-0.073258,76.874596,0.515237,0.473295,0.374973,0.784405,-0.798132,-1.288941,2.419329,10.305147,9369.964844,100.000000,0.949828,21.000000,6.263527,549.804626,265.623993,999.023926,0.865866,1.040000,60.714836,5.982142,74.999725,31.499748,0.205237,0.802308,100.000000,-0.000015,-0.000015,59.540001,12.000000,0.303238,0.683465,0.559985,6.364826,9.995498,115.000000,0.940000,0.150000,0.000000
0.013,31.671757,13.671977,60.822853,59.063370,59.809971,60.751446,73.811867,-0.071824,76.874596,0.516403,0.473861,0.284724,0.794020,-0.440422,-2.593764,4.497938,9.613971,9406.024414,100.000000,0.960060,21.000000,6.266495,549.804626,265.623993,999.023926,0.878062,1.040000,60.746490,5.984127,74.999725,31.499748,0.205477,0.799619,100.000000,-0.000015,-0.000015,59.779999,12.000000,0.305660,0.670973,0.558267,6.484002,10.043627,115.000000,0.940000,0.150000,0.000000
0.013,31.671757,13.671680,61.097553,59.288181,60.074432,61.049789,73.811867,-0.071837,76.874596,0.531562,0.471596,0.290330,0.683838,-0.777886,-1.583919,4.420741,8.902575,9442.084961,100.000000,0.970292,21.000000,6.269462,549.804626,265.623993,999.023926,0.890257,1.040000,60.778145,5.986111,74.999725,31.499748,0.205717,0.796930,100.000000,-0.000015,-0.000015,60.020000,12.000000,0.308082,0.658482,0.556548,6.603177,10.091755,115.000000,0.940000,0.150000,0.000000
0.013,31.671757,13.671383,61.372257,59.512989,60.338894,61.348137,73.811867,-0.071850,76.874596,0.532145,0.465932,0.295935,0.573657,-1.115349,-0.574075,4.343544,8.191177,9478.144531,100.000000,0.980524,21.000000,6.272429,549.804626,265.623993,999.023926,0.902452,1.040000,60.809803,5.988095,74.999725,31.499748,0.205957,0.794242,100.000000,-0.000015,-0.000015,60.259998,12.000000,0.310504,0.645990,0.554829,6.722352,10.139884,115.000000,0.940000,0.150000,0.000000
0.014,31.671757,13.671086,61.646961,59.737797,60.603355,61.646484,73.811867,-0.072554,76.874596,0.526897,0.458004,0.340261,0.672927,-1.112040,-1.186131,3.202739,7.935662,9514.204102,100.000000,0.990756,21.000000,6.275397,549.804626,265.623993,999.023926,0.914648,1.040000,60.841461,5.990079,74.999725,31.499748,0.206197,0.791553,100.000000,-0.000015,-0.000015,60.500000,12.000000,0.312926,0.633499,0.553110,6.841527,10.188012,115.000000,0.940000,0.150000,0.000000
0.014,31.671757,13.670789,61.847473,59.976364,60.769905,61.846966,73.811867,-0.073257,76.874596,0.515820,0.465366,0.384588,0.772196,-1.108730,-1.798187,2.061934,7.680148,9550.263672,100.000000,1.000988,21.000000,6.278365,549.804626,265.623993,999.023926,0.926843,1.040000,60.873116,5.992064,74.999725,31.499748,0.206436,0.788864,100.000000,-0.000015,-0.000015,60.740002,12.000000,0.315347,0.621007,0.551391,6.960702,10.236140,115.000000,0.940000,0.150000,0.000000
0.014,31.671757,13.670492,62.047985,60.214931,60.936459,62.047447,73.811867,-0.072542,76.874596,0.524565,0.476127,0.337933,0.603198,-1.157009,-1.334101,-1.657832,8.027574,9586.323242,100.000000,1.011220,21.000000,6.281332,549.804626,265.623993,999.023926,0.939038,1.040000,60.904770,5.994048,74.999725,31.499748,0.206676,0.786176,100.000000,-0.000015,-0.000015,60.980000,12.000000,0.317769,0.608516,0.549672,7.079878,10.284269,115.000000,0.940000,0.150000,0.000000
0.014,31.671757,13.670195,62.248497,60.453495,61.103008,62.247925,73.811867,-0.071827,76.874596,0.525731,0.481790,0.291278,0.434200,-1.205288,-0.870014,-5.377598,8.375000,9622.383789,100.000000,1.021452,21.000000,6.284299,549.804626,265.623993,999.023926,0.951234,1.040000,60.936428,5.996032,74.999725,31.499748,0.206916,0.783487,100.000000,-0.000015,-0.000015,61.220001,12.000000,0.320191,0.596024,0.547953,7.199053,10.332397,115.000000,0.940000,0.150000,0.000000
0.014,31.671757,13.669898,62.449009,60.692062,61.269562,62.448406,73.811867,-0.072276,76.874596,0.520484,0.476127,0.211001,0.589758,-1.252836,-1.517621,1.026919,9.123161,9658.443359,100.000000,1.031684,21.000000,6.287267,549.804626,265.623993,999.023926,0.963429,1.040000,60.968086,5.998016,74.999725,31.499748,0.207156,0.780798,100.000000,-0.000015,-0.000015,61.459999,12.000000,0.322613,0.583533,0.546234,7.318228,10.380527,115.000000,0.940000,0.150000,0.000000
0.014,31.671757,13.669600,62.649521,60.930630,61.436111,62.648888,73.811867,-0.072726,76.874596,0.518735,0.466499,0.130725,0.745316,-1.300385,-2.165229,7.431436,9.871324,9694.502930,100.000000,1.041916,21.000000,6.290235,549.804626,265.623993,999.023926,0.975624,1.040000,60.999741,6.000000,74.999725,31.499748,0.207396,0.778110,100.000000,-0.000015,-0.000015,61.700001,12.000000,0.325035,0.571041,0.544516,7.437403,10.428655,115.000000,0.940000,0.150000,0.000000
0.015,31.671757,13.669304,62.909607,61.186329,61.753929,62.903183,73.811867,-0.072754,76.874596,0.520484,0.470463,0.176866,0.737565,-1.110239,-1.374456,4.183431,10.240808,9714.765625,100.000000,1.032724,21.000000,6.289075,549.804626,265.710846,999.023926,89.606514,1.040000,60.999741,6.000000,74.999725,31.499748,0.207898,0.775700,100.000000,-0.000015,-0.000015,61.900002,12.000000,0.329496,0.556064,0.545662,7.550849,10.556997,115.000000,0.940000,0.150000,0.000000
0.015,31.671757,13.669006,63.169693,61.442032,62.071751,63.157475,73.811867,-0.072781,76.874596,0.518735,0.472162,0.223007,0.729814,-0.920094,-0.583683,0.935426,10.610294,9735.028320,100.000000,1.023532,21.000000,6.287916,549.804626,265.797699,999.023926,178.237396,1.040000,60.999741,6.000000,74.999725,31.499748,0.208401,0.773291,100.000000,-0.000015,-0.000015,62.100002,12.000000,0.333957,0.541087,0.546807,7.664295,10.685340,115.000000,0.940000,0.150000,0.000000
0.015,31.671757,13.668710,63.429779,61.697731,62.389568,63.411770,73.811867,-0.072197,76.874596,0.512321,0.473295,0.354627,0.650105,-1.292063,0.675019,-1.271845,10.503677,9755.290039,100.000000,1.014340,21.000000,6.286757,549.804626,265.884552,999.023926,266.868286,1.040000,60.999741,6.000000,74.999725,31.499748,0.208903,0.770882,100.000000,-0.000015,-0.000015,62.299999,12.000000,0.338418,0.526110,0.547953,7.777740,10.813683,115.000000,0.940000,0.150000,0.000000
0.015,31.671757,13.668412,63.689865,61.953434,62.707390,63.666061,73.811867,-0.071613,76.874596,0.507657,0.471596,0.486246,0.570397,-1.664032,1.933722,-3.479116,10.397059,9775.552734,100.000000,1.005147,21.000000,6.285598,549.804626,265.971405,999.023926,355.499176,1.040000,60.999741,6.000000,74.999725,31.499748,0.209406,0.768472,100.000000,-0.000015,-0.000015,62.500000,12.000000,0.342880,0.511133,0.549099,7.891186,10.942025,115.000000,0.940000,0.150000,0.000000
0.015,31.671757,13.668116,63.949951,62.209133,63.025208,63.920357,73.811867,-0.072757,76.874596,0.526897,0.467065,0.511670,0.770866,-1.353968,1.624331,-5.892246,10.687500,9795.815430,100.000000,0.995955,21.000000,6.284439,549.804626,266.058228,999.023926,444.130066,1.040000,60.999741,6.000000,74.999725,31.499748,0.209908,0.766063,100.000000,-0.000015,-0.000015,62.700001,12.000000,0.347341,0.496156,0.550245,8.004632,11.070368,115.000000,0.940000,0.150000,0.000000
0.015,31.671757,13.667818,64.082336,62.388771,63.238125,64.033524,73.811867,-0.073901,76.874596,0.519318,0.466499,0.537094,0.971335,-1.043905,1.314939,-8.305377,10.977942,9816.078125,100.000000,0.986763,21.000000,6.283279,549.804626,266.145081,999.023926,532.760925,1.040000,60.999741,6.000000,74.999725,31.499748,0.210411,0.763654,100.000000,-0.000015,-0.000015,62.900002,12.000000,0.351802,0.481179,0.551391,8.118077,11.198709,115.000000,0.940000,0.150000,0.000000
0.016,31.671757,13.667521,64.214722,62.568409,63.451042,64.146690,73.811867,-0.072954,76.874596,0.518152,0.472162,0.439920,0.740559,-1.209960,3.462420,-3.785046,11.275736,9836.340820,100.000000,0.977571,21.000000,6.282120,549.804626,266.231934,999.023926,621.391846,1.040000,60.999741,6.000000,74.999725,31.499748,0.210914,0.761244,100.000000,-0.000015,-0.000015,63.100002,12.000000,0.356263,0.466202,0.552537,8.231524,11.327052,115.000000,0.940000,0.150000,0.000000
0.016,31.671757,13.667225,64.347115,62.748051,63.663956,64.259857,73.811867,-0.072007,76.874596,0.515820,0.464233,0.342746,0.509783,-1.376015,5.609901,0.735285,11.573530,9856.602539,100.000000,0.968378,21.000000,6.280961,549.804626,266.318787,999.023926,710.022705,1.040000,60.999741,6.000000,74.999725,31.499748,0.211416,0.758835,100.000000,-0.000015,-0.000015,63.299999,12.000000,0.360725,0.451225,0.553683,8.344969,11.455395,115.000000,0.940000,0.150000,0.000000
0.016,31.671757,13.666927,64.479500,62.927689,63.876873,64.373024,73.811867,-0.072449,76.874596,0.518735,0.461402,0.285995,0.582140,-1.199642,5.157345,-3.507707,11.948530,9876.865234,100.000000,0.959186,21.000000,6.279802,549.804626,266.405640,999.023926,798.653625,1.040000,60.999741,6.000000,74.999725,31.499748,0.211919,0.756426,100.000000,-0.000015,-0.000015,63.500000,12.000000,0.365186,0.436247,0.554829,8.458415,11.583737,115.000000,0.940000,0.150000,0.000000
0.016,31.671757,13.666631,64.611885,63.107327,64.089790,64.486191,73.811867,-0.072891,76.874596,0.515820,0.465932,0.229243,0.654496,-1.023270,4.704789,-7.750700,12.323530,9897.127930,100.000000,0.949994,21.000000,6.278643,549.804626,266.492493,999.023926,887.284485,1.040000,60.999741,6.000000,74.999725,31.499748,0.212421,0.754017,100.000000,-0.000015,-0.000015,63.700001,12.000000,0.369647,0.421270,0.555975,8.571860,11.712080,115.000000,0.940000,0.150000,0.000000
0.016,31.671757,13.666333,64.573273,63.227520,64.173714,64.413383,73.811867,-0.072668,76.874596,0.509406,0.465366,0.267968,0.699906,-0.769807,1.963508,-4.299695,12.044119,9790.708984,100.000000,0.950266,21.000000,6.262785,549.892456,266.415588,999.023926,898.447754,1.040000,60.999741,5.982568,74.999725,31.672968,0.212431,0.753614,100.000000,-0.000015,-0.000015,63.800003,12.000000,0.372770,0.411519,0.555975,8.671555,11.801461,115.000000,0.940000,0.150000,0.000000
0.017,31.671757,13.666037,64.534660,63.347710,64.257637,64.340576,73.811867,-0.072446,76.874596,0.522816,0.472162,0.306693,0.745316,-0.516344,-0.777773,-0.848689,11.764707,9684.291016,100.000000,0.950538,21.000000,6.246927,549.980225,266.338715,999.023926,909.611023,1.040000,60.999741,5.965137,74.999725,31.846189,0.212442,0.753211,100.000000,-0.000015,-0.000015,63.900002,12.000000,0.375893,0.401768,0.555975,8.771250,11.890842,115.000000,0.940000,0.150000,0.000000
0.017,31.671757,13.665739,64.496048,63.467903,64.341560,64.267769,73.811867,-0.073164,76.874596,0.522233,0.473295,0.343077,0.627184,-0.568614,-3.301904,-2.186776,11.643383,9577.873047,100.000000,0.950811,21.000000,6.231070,550.068054,266.261810,999.023926,920.774292,1.040000,60.999741,5.947705,74.999725,32.019409,0.212452,0.752809,100.000000,-0.000015,-0.000015,64.000000,12.000000,0.379016,0.392017,0.555975,8.870944,11.980225,115.000000,0.940000,0.150000,0.000000
0.017,31.671757,13.665442,64.457436,63.588093,64.425484,64.194962,73.811867,-0.073883,76.874596,0.509989,0.469897,0.379460,0.509052,-0.620883,-5.826035,-3.524863,11.522059,9471.454102,100.000000,0.951083,21.000000,6.215212,550.155884,266.184906,999.023926,931.937561,1.040000,60.999741,5.930274,74.999725,32.192631,0.212462,0.752406,100.000000,-0.000015,-0.000015,64.100006,12.000000,0.382139,0.382266,0.555975,8.970639,12.069606,115.000000,0.940000,0.150000,0.000000
0.017,31.671757,13.665145,64.418823,63.708286,64.509407,64.122154,73.811867,-0.072957,76.874596,0.517569,0.472729,0.379187,0.248668,-0.525397,-10.526472,-0.514168,12.869486,9365.035156,100.000000,0.951355,21.000000,6.199354,550.243652,266.108032,999.023926,943.100830,1.040000,60.999741,5.912842,74.999725,32.365852,0.212472,0.752004,100.000000,-0.000015,-0.000015,64.200005,12.000000,0.385262,0.372515,0.555975,9.070333,12.158987,115.000000,0.940000,0.150000,0.000000
0.017,31.671757,13.664848,64.447510,63.630150,64.594887,64.041435,73.811867,-0.072031,76.874596,0.518735,0.476127,0.378913,-0.011716,-0.429910,-15.226909,2.496527,14.216912,9258.617188,100.000000,0.951628,21.000000,6.183496,550.331482,266.031128,999.023926,954.264160,1.040000,60.999741,5.895411,74.999725,32.539070,0.212482,0.751601,100.000000,-0.000015,-0.000015,64.300003,12.000000,0.388385,0.362764,0.555975,9.170028,12.248368,115.000000,0.940000,0.150000,0.000000
