time,Distance,Speed_RL,Speed_FR,Speed_FL,Speed_RR,BP_F,BP_R,LateralAcc,InlineAcc,VerticalAcc,PitchRate,RollRate,YawRate,RPM,TPS,IAT,BT_FR_L,BT_FR_R,GPS_Speed,GPS_Nsat,GPS_LatAcc,GPS_LonAcc,GPS_Slope,GPS_Heading,GPS_Gyro,GPS_Altitude,GPS_Latitude,GPS_Longitude,GPS_Elevation
0.000,0.000,61.631794,27.315790,28.483343,57.945507,0.504742,0.465366,-0.059777,1.049846,-0.694080,-1.598332,-5.263231,13.352942,9326.863281,100.000000,21.000000,-0.000015,-0.000015,28.100000,11.000000,0.082215,0.894164,1.530003,-6.852164,6.303359,115.000000,49.330161454988,8.564073214370,115.27
0.010,0.000,61.405079,27.669876,28.801941,58.036514,0.515237,0.467632,0.026753,0.863615,-0.792730,-0.063868,-4.785751,13.020222,9322.925781,100.000000,21.000000,-0.000015,-0.000015,28.410000,11.000000,0.086357,0.896394,1.497344,-6.707778,6.511915,115.000000,49.330162185572,8.564072996302,115.27
0.020,0.000,61.178368,28.023962,29.120537,58.127522,0.512904,0.476127,0.113283,0.677384,-0.891379,1.470596,-4.308272,12.687501,9318.988281,100.000000,21.000000,-0.000015,-0.000015,28.720001,11.000000,0.090500,0.898625,1.464686,-6.563393,6.720472,115.000000,49.330162968336,8.564072775374,115.27
0.030,0.000,60.951653,28.378050,29.439135,58.218529,0.518152,0.471030,0.177215,0.886503,-1.007501,-0.236820,-6.289669,12.545957,9315.051758,100.000000,21.000000,-0.000015,-0.000015,29.030001,11.000000,0.094643,0.900856,1.432027,-6.419008,6.929029,115.000000,49.330163764146,8.564072553731,115.27
0.040,0.000,60.724941,28.732136,29.757730,58.309536,0.522816,0.476693,0.241147,1.095621,-1.123623,-1.944235,-8.271067,12.404412,9311.114258,100.000000,21.000000,-0.000015,-0.000015,29.340000,11.000000,0.098785,0.903086,1.399369,-6.274622,7.137585,115.000000,49.330164559956,8.564072332088,115.27
0.050,0.000,60.498226,29.086222,30.076328,58.400543,0.515820,0.478958,0.183741,0.947216,-0.971974,-0.596174,-4.651371,12.761030,9307.176758,100.000000,21.000000,-0.000015,-0.000015,29.650002,11.000000,0.102928,0.905317,1.366710,-6.130237,7.346142,115.000000,49.330165355766,8.564072110445,115.28
0.060,0.001,60.470646,29.340364,30.414612,58.405819,0.527480,0.477259,0.126335,0.798810,-0.820324,0.751886,-1.031676,13.117647,9303.239258,100.000000,21.000000,-0.000015,-0.000015,29.960001,11.000000,0.107070,0.907548,1.334051,-5.985852,7.554698,115.000000,49.330166151576,8.564071888802,115.28
0.070,0.001,60.443066,29.594507,30.752893,58.411095,0.529229,0.477259,0.059907,0.907062,-0.780563,0.253210,-2.046677,14.161765,9299.301758,100.000000,21.000000,-0.000015,-0.000015,30.270000,11.000000,0.111213,0.909778,1.301393,-5.841466,7.763255,115.000000,49.330166947386,8.564071667159,115.28
0.080,0.001,60.415485,29.848650,31.091177,58.416370,0.523982,0.474428,-0.006520,1.015314,-0.740801,-0.245467,-3.061679,15.205883,9295.365234,100.000000,21.000000,-0.000015,-0.000015,30.580000,11.000000,0.115356,0.912009,1.268734,-5.697081,7.971811,115.000000,49.330167772490,8.564071448569,115.28
0.090,0.001,60.387905,30.102793,31.429459,58.421646,0.518152,0.474994,0.005241,0.891693,-1.016797,-0.232015,-0.711450,15.994486,9291.427734,100.000000,21.000000,-0.000015,-0.000015,30.890001,11.000000,0.119498,0.914239,1.236076,-5.552696,8.180368,115.000000,49.330168626887,8.564071233030,115.29
0.100,0.001,60.360325,30.356936,31.767742,58.426922,0.511155,0.472729,0.017002,0.768071,-1.292793,-0.218564,1.638779,16.783089,9287.490234,100.000000,21.000000,-0.000015,-0.000015,31.200001,11.000000,0.123641,0.916470,1.203417,-5.408310,8.388925,115.000000,49.330169481285,8.564071017492,115.29
0.110,0.001,60.199528,30.701416,32.121048,58.503948,0.524565,0.476127,0.049150,0.892458,-1.150293,-0.997806,0.417918,16.992647,9273.582031,100.000000,21.000000,-0.000015,-0.000015,31.530001,11.000000,0.129249,0.917745,1.204563,-5.253612,8.641026,115.000000,49.330170335683,8.564070801953,115.29
0.120,0.001,60.038734,31.045898,32.474354,58.580975,0.528063,0.481790,0.081298,1.016844,-1.007793,-1.777049,-0.802943,17.202206,9259.672852,100.000000,21.000000,-0.000015,-0.000015,31.860001,11.000000,0.134858,0.919019,1.205709,-5.098913,8.893127,115.000000,49.330171190080,8.564070586415,115.29
0.130,0.001,59.877937,31.390379,32.827660,58.658005,0.521650,0.471596,0.101256,0.893988,-0.874832,-0.397280,-3.153172,17.463236,9245.764648,100.000000,21.000000,-0.000015,-0.000015,32.190002,11.000000,0.140466,0.920294,1.206855,-4.944214,9.145229,115.000000,49.330172044478,8.564070370876,115.30
0.140,0.001,59.717144,31.734861,33.180965,58.735031,0.526314,0.461968,0.121214,0.771132,-0.741872,0.982488,-5.503401,17.724266,9231.856445,100.000000,21.000000,-0.000015,-0.000015,32.520000,11.000000,0.146075,0.921569,1.208001,-4.789516,9.397330,115.000000,49.330172921091,8.564070157799,115.30
0.150,0.001,59.556347,32.079342,33.534271,58.812057,0.528063,0.469897,0.143183,0.911753,-1.005798,0.128300,-3.336158,18.310661,9217.947266,100.000000,21.000000,-0.000015,-0.000015,32.849998,11.000000,0.151683,0.922843,1.209147,-4.634817,9.649431,115.000000,49.330173849539,8.564069950464,115.30
0.160,0.001,59.431129,32.438103,33.895088,58.588100,0.527480,0.474994,0.165152,1.052374,-1.269724,-0.725888,-1.168915,18.897058,9204.039063,100.000000,21.000000,-0.000015,-0.000015,33.180000,11.000000,0.157291,0.924118,1.210293,-4.480119,9.901533,115.000000,49.330174777988,8.564069743129,115.30
0.170,0.002,59.305916,32.796860,34.255905,58.364143,0.528646,0.475560,0.164700,1.039566,-1.179688,1.907779,1.555863,19.132353,9190.130859,100.000000,21.000000,-0.000015,-0.000015,33.510002,11.000000,0.162900,0.925393,1.211438,-4.325420,10.153635,115.000000,49.330175706436,8.564069535794,115.31
0.180,0.002,59.180698,33.155621,34.616726,58.140182,0.511738,0.474428,0.164248,1.026758,-1.089653,4.541445,4.280642,19.367647,9176.222656,100.000000,21.000000,-0.000015,-0.000015,33.840000,11.000000,0.168508,0.926667,1.212584,-4.170722,10.405736,115.000000,49.330176634884,8.564069328459,115.31
0.190,0.002,59.055485,33.514378,34.977543,57.916225,0.514071,0.468198,0.132899,1.063219,-0.898826,3.410535,2.067653,18.261030,9162.313477,100.000000,21.000000,-0.000015,-0.000015,34.169998,11.000000,0.174117,0.927942,1.213730,-4.016023,10.657837,115.000000,49.330177563333,8.564069121125,115.31
0.200,0.002,58.930267,33.873138,35.338360,57.692268,0.516986,0.466499,0.101549,1.099680,-0.707999,2.279624,-0.145336,17.154413,9148.405273,100.000000,21.000000,-0.000015,-0.000015,34.500000,11.000000,0.179725,0.929217,1.214876,-3.861324,10.909939,115.000000,49.330178494817,8.564068916147,115.31
0.210,0.002,58.567028,34.198669,35.587021,57.715481,0.508823,0.474994,0.077048,0.973031,-0.986282,3.653628,1.175595,16.463236,9130.943359,100.000000,21.000000,-0.000015,-0.000015,34.830002,11.000000,0.187500,0.928770,1.205709,-3.767359,11.235379,115.000000,49.330179453625,8.564068732388,115.32
0.220,0.002,58.203793,34.524200,35.835682,57.738693,0.514071,0.477826,0.052547,0.846382,-1.264565,5.027631,2.496527,15.772059,9113.482422,100.000000,21.000000,-0.000015,-0.000015,35.160000,11.000000,0.195276,0.928324,1.196542,-3.673394,11.560819,115.000000,49.330180412434,8.564068548629,115.32
0.230,0.002,57.840553,34.849731,36.084343,57.761909,0.512321,0.478392,0.067034,0.954335,-1.122893,4.960372,1.292821,15.327207,9096.020508,100.000000,21.000000,-0.000015,-0.000015,35.489998,11.000000,0.203051,0.927878,1.187374,-3.579429,11.886259,115.000000,49.330181371243,8.564068364869,115.32
0.240,0.002,57.477318,35.175262,36.333004,57.785122,0.522816,0.474428,0.081520,1.062288,-0.981220,4.893114,0.089115,14.882354,9078.558594,100.000000,21.000000,-0.000015,-0.000015,35.820000,11.000000,0.210826,0.927432,1.178207,-3.485464,12.211699,115.000000,49.330182330051,8.564068181110,115.33
0.250,0.002,57.114079,35.500793,36.581665,57.808334,0.522816,0.469331,0.130822,0.984841,-1.123477,4.935390,-0.711450,13.667280,9061.097656,100.000000,21.000000,-0.000015,-0.000015,36.150002,11.000000,0.218602,0.926986,1.169039,-3.391499,12.537139,115.000000,49.330183288860,8.564067997350,115.33
0.260,0.002,56.710022,35.827362,36.847160,57.725506,0.521650,0.476127,0.180124,0.907395,-1.265733,4.977667,-1.512014,12.452207,9043.635742,100.000000,21.000000,-0.000015,-0.000015,36.480000,11.000000,0.226377,0.926540,1.159872,-3.297534,12.862579,115.000000,49.330184247668,8.564067813591,115.33
0.270,0.003,56.305965,36.153931,37.112659,57.642673,0.525731,0.477259,0.210370,1.106633,-1.094665,4.121558,-2.452678,11.757354,9026.173828,100.000000,21.000000,-0.000015,-0.000015,36.809998,11.000000,0.234152,0.926094,1.150705,-3.203569,13.188019,115.000000,49.330185263624,8.564067646860,115.33
0.280,0.003,55.901905,36.480503,37.378155,57.559845,0.522233,0.467632,0.240616,1.305871,-0.923598,3.265448,-3.393341,11.062501,9008.711914,100.000000,21.000000,-0.000015,-0.000015,37.139999,11.000000,0.241928,0.925648,1.141538,-3.109604,13.513459,115.000000,49.330186293868,8.564067484385,115.34
0.290,0.003,55.497849,36.807072,37.643654,57.477013,0.522233,0.474994,0.215216,1.103073,-0.969443,3.602703,-4.359737,10.479780,8991.250977,100.000000,21.000000,-0.000015,-0.000015,37.470001,11.000000,0.249703,0.925201,1.132370,-3.015639,13.838899,115.000000,49.330187324111,8.564067321911,115.34
0.300,0.003,55.093792,37.133640,37.909149,57.394184,0.526314,0.471030,0.189815,0.900276,-1.015288,3.939959,-5.326133,9.897059,8973.789063,100.000000,21.000000,-0.000015,-0.000015,37.799999,11.000000,0.257479,0.924755,1.123203,-2.921674,14.164339,115.000000,49.330188354354,8.564067159437,115.34
0.310,0.003,54.864323,37.516022,38.289394,57.368332,0.517569,0.479525,0.166059,1.076493,-1.055001,2.368022,1.301398,9.676472,8948.628906,100.000000,21.000000,-0.000015,-0.000015,38.130001,11.000000,0.267230,0.923353,1.115754,-2.827708,14.547075,115.000000,49.330189384597,8.564066996962,115.34
0.320,0.003,54.634850,37.898403,38.669640,57.342480,0.523982,0.477259,0.142304,1.252710,-1.094714,0.796085,7.928929,9.455883,8923.468750,100.000000,21.000000,-0.000015,-0.000015,38.459999,11.000000,0.276981,0.921951,1.108306,-2.733743,14.929811,115.000000,49.330190414841,8.564066834488,115.35
0.330,0.003,54.405380,38.280788,39.049881,57.316631,0.517569,0.475560,0.176142,0.963850,-1.130582,1.039178,6.796702,9.584559,8898.308594,100.000000,21.000000,-0.000015,-0.000015,38.790001,11.000000,0.286732,0.920549,1.100858,-2.639778,15.312547,115.000000,49.330191470593,8.564066688534,115.35
0.340,0.003,54.175907,38.663170,39.430126,57.290779,0.516986,0.478392,0.209980,0.674989,-1.166451,1.282271,5.664475,9.713236,8873.148438,100.000000,21.000000,-0.000015,-0.000015,39.119999,11.000000,0.296483,0.919147,1.093409,-2.545813,15.695282,115.000000,49.330192551854,8.564066559099,115.35
0.350,0.003,53.946438,39.045551,39.810371,57.264927,0.519318,0.469331,0.259785,0.891726,-1.075198,-1.062182,2.130554,9.485294,8847.988281,100.000000,21.000000,-0.000015,-0.000015,39.450001,11.000000,0.306234,0.917745,1.085961,-2.451848,16.078018,115.000000,49.330193633115,8.564066429664,115.36
0.360,0.004,54.120472,39.248814,40.168858,57.352505,0.509406,0.466499,0.309590,1.108463,-0.983946,-3.406636,-1.403366,9.257354,8822.828125,100.000000,21.000000,-0.000015,-0.000015,39.780003,11.000000,0.315985,0.916343,1.078512,-2.357883,16.460754,115.000000,49.330194714376,8.564066300230,115.36
0.370,0.004,54.294506,39.452076,40.527344,57.440083,0.511738,0.474994,0.329866,0.935240,-1.088777,-2.899312,0.100551,10.441177,8797.667969,100.000000,21.000000,-0.000015,-0.000015,40.110001,11.000000,0.325736,0.914940,1.071064,-2.263918,16.843491,115.000000,49.330195795637,8.564066170795,115.36
0.380,0.004,54.468540,39.655334,40.885830,57.527664,0.509989,0.470463,0.350143,0.762016,-1.193607,-2.391987,1.604469,11.625001,8772.507813,100.000000,21.000000,-0.000015,-0.000015,40.440002,11.000000,0.335487,0.913538,1.063615,-2.169953,17.226225,115.000000,49.330196876899,8.564066041360,115.36
0.390,0.004,54.642574,39.858597,41.244316,57.615242,0.502410,0.478392,0.360211,0.838798,-1.099435,-2.383339,-1.449113,13.077207,8747.347656,100.000000,21.000000,-0.000015,-0.000015,40.770000,11.000000,0.345238,0.912136,1.056167,-2.075988,17.608961,115.000000,49.330197976433,8.564065923826,115.37
0.400,0.004,54.816608,40.061859,41.602802,57.702820,0.514071,0.471030,0.370280,0.915579,-1.005262,-2.374692,-4.502695,14.529412,8722.187500,100.000000,21.000000,-0.000015,-0.000015,41.100002,11.000000,0.354989,0.910734,1.048718,-1.982023,17.991697,115.000000,49.330199118604,8.564065834059,115.37
0.410,0.004,55.144817,40.366882,41.993408,57.655602,0.527480,0.473295,0.374923,0.831545,-1.006674,-1.893310,-2.895848,15.577206,8721.466797,100.000000,21.000000,-0.000015,-0.000015,41.420002,11.000000,0.364931,0.910097,1.045281,-1.860556,18.351515,115.000000,49.330200260775,8.564065744293,115.37
0.420,0.004,55.473026,40.671906,42.384014,57.608383,0.537975,0.478392,0.379567,0.747512,-1.008085,-1.411929,-1.289000,16.625000,8720.747070,100.000000,21.000000,-0.000015,-0.000015,41.740002,11.000000,0.374873,0.909460,1.041843,-1.739088,18.711332,115.000000,49.330201402946,8.564065654526,115.37
0.430,0.004,55.801239,40.976929,42.774616,57.561165,0.524565,0.480091,0.358639,0.823994,-0.886075,-2.152738,-2.712861,18.172794,8720.027344,100.000000,21.000000,-0.000015,-0.000015,42.060001,11.000000,0.384816,0.908822,1.038405,-1.617621,19.071150,115.000000,49.330202545117,8.564065564760,115.37
0.440,0.005,56.129448,41.281952,43.165222,57.513947,0.514654,0.487454,0.337711,0.900475,-0.764064,-2.893546,-4.136723,19.720589,8719.306641,100.000000,21.000000,-0.000015,-0.000015,42.380001,11.000000,0.394758,0.908185,1.034967,-1.496154,19.430967,115.000000,49.330203687288,8.564065474993,115.38
0.450,0.005,56.457657,41.586975,43.555828,57.466728,0.506491,0.488020,0.332784,0.879683,-0.874394,-1.756871,-1.291859,20.972427,8718.585938,100.000000,21.000000,-0.000015,-0.000015,42.700001,11.000000,0.404700,0.907548,1.031530,-1.374687,19.790783,115.000000,49.330204829326,8.564065390536,115.38
0.460,0.005,56.596111,41.854618,43.844639,57.709679,0.507657,0.481790,0.327857,0.858891,-0.984725,-0.620195,1.553004,22.224266,8717.866211,100.000000,21.000000,-0.000015,-0.000015,43.020000,11.000000,0.414642,0.906910,1.028092,-1.253220,20.150600,115.000000,49.330205970159,8.564065353863,115.38
0.470,0.005,56.734566,42.122257,44.133446,57.952629,0.514654,0.473295,0.387362,0.878486,-0.917417,-1.398477,2.293526,22.994486,8717.146484,100.000000,21.000000,-0.000015,-0.000015,43.340000,11.000000,0.424584,0.906273,1.024654,-1.131753,20.510418,115.000000,49.330207110993,8.564065317190,115.38
0.480,0.005,56.873024,42.389900,44.422256,58.195580,0.519318,0.470463,0.446868,0.898080,-0.850109,-2.176759,3.034049,23.764706,8716.425781,100.000000,21.000000,-0.000015,-0.000015,43.660000,11.000000,0.434527,0.905636,1.021217,-1.010286,20.870235,115.000000,49.330208251826,8.564065280518,115.38
0.490,0.005,57.011478,42.657539,44.711063,58.438530,0.526897,0.471030,0.512169,1.095888,-0.815117,-1.587763,-0.354055,25.095589,8715.705078,100.000000,21.000000,-0.000015,-0.000015,43.980000,11.000000,0.444469,0.904998,1.017779,-0.888819,21.230053,115.000000,49.330209392660,8.564065243845,115.38
0.500,0.005,57.149933,42.925182,44.999874,58.681480,0.532728,0.470463,0.577469,1.293695,-0.780125,-0.998767,-3.742159,26.426472,8714.985352,100.000000,21.000000,-0.000015,-0.000015,44.299999,11.000000,0.454411,0.904361,1.014341,-0.767352,21.589870,115.000000,49.330210533493,8.564065207172,115.38
0.510,0.005,57.126766,43.205803,45.325726,58.625294,0.523982,0.470463,0.573477,1.196255,-0.926128,-1.663669,-2.172480,27.334560,8721.739258,100.000000,21.000000,-0.000015,-0.000015,44.610001,11.000000,0.459255,0.904871,1.000590,-0.610362,21.658627,115.000000,49.330211674326,8.564065170499,115.39
0.520,0.006,57.103596,43.486423,45.651573,58.569107,0.515237,0.476127,0.569484,1.098815,-1.072132,-2.328572,-0.602802,28.242647,8728.494141,100.000000,21.000000,-0.000015,-0.000015,44.919998,11.000000,0.464098,0.905381,0.986839,-0.453371,21.727381,115.000000,49.330212854298,8.564065176398,115.39
0.530,0.006,57.080429,43.767048,45.977425,58.512917,0.515820,0.477259,0.530678,1.017177,-0.946958,-2.201741,-1.840818,27.974266,8735.248047,100.000000,21.000000,-0.000015,-0.000015,45.230000,11.000000,0.468942,0.905891,0.973088,-0.296381,21.796135,115.000000,49.330214044054,8.564065192939,115.39
0.540,0.006,57.057259,44.047668,46.303272,58.456730,0.510572,0.475560,0.491872,0.935539,-0.821784,-2.074909,-3.078834,27.705883,8742.001953,100.000000,21.000000,-0.000015,-0.000015,45.540001,11.000000,0.473786,0.906400,0.959337,-0.139390,21.864891,115.000000,49.330215233809,8.564065209481,115.39
0.550,0.006,57.034092,44.328289,46.629124,58.400543,0.522816,0.478958,0.483946,1.033046,-0.946569,-0.384789,-1.646395,27.534927,8748.755859,100.000000,21.000000,-0.000015,-0.000015,45.849998,11.000000,0.478629,0.906910,0.945586,0.017600,21.933647,115.000000,49.330216423565,8.564065226023,115.39
0.560,0.006,57.035748,44.715603,46.976990,58.303734,0.524565,0.472162,0.476020,1.130552,-1.071353,1.305331,-0.213956,27.363972,8755.510742,100.000000,21.000000,-0.000015,-0.000015,46.160000,11.000000,0.483473,0.907420,0.931835,0.174591,22.002401,115.000000,49.330217613321,8.564065242564,115.40
0.570,0.006,57.037403,45.102917,47.324856,58.206921,0.523982,0.474994,0.496073,0.970303,-1.031202,1.729062,-4.090976,27.560661,8762.264648,100.000000,21.000000,-0.000015,-0.000015,46.470001,11.000000,0.488317,0.907930,0.918084,0.331581,22.071156,115.000000,49.330218803077,8.564065259106,115.40
0.580,0.006,57.039055,45.490234,47.672722,58.110111,0.522816,0.476127,0.516126,0.810055,-0.991051,2.152793,-7.967996,27.757353,8769.018555,100.000000,21.000000,-0.000015,-0.000015,46.780003,11.000000,0.493160,0.908440,0.904333,0.488571,22.139912,115.000000,49.330220007927,8.564065302508,115.40
0.590,0.006,57.040710,45.877548,48.020588,58.013298,0.519318,0.477259,0.530784,0.909923,-0.893229,1.905857,-5.843640,27.838236,8775.773438,100.000000,21.000000,-0.000015,-0.000015,47.090000,11.000000,0.498004,0.908950,0.890582,0.645562,22.208668,115.000000,49.330221227872,8.564065372769,115.40
0.600,0.007,57.042366,46.264862,48.368454,57.916489,0.524565,0.477826,0.545442,1.009792,-0.795406,1.658921,-3.719285,27.919119,8782.527344,100.000000,21.000000,-0.000015,-0.000015,47.400002,11.000000,0.502848,0.909460,0.876831,0.802552,22.277422,115.000000,49.330222447817,8.564065443030,115.41
0.610,0.007,56.866127,46.535618,48.636024,57.637661,0.520484,0.481790,0.541075,0.924627,-0.897074,3.908251,-4.382610,27.757355,8763.785156,100.000000,21.000000,-0.000015,-0.000015,47.730003,11.000000,0.500490,0.908886,0.867664,0.961834,22.009277,115.000000,49.330223667763,8.564065513292,115.41
0.620,0.007,56.689884,46.806374,48.903595,57.358837,0.514071,0.482923,0.536709,0.839463,-0.998741,6.157581,-5.045935,27.595589,8745.042969,100.000000,21.000000,-0.000015,-0.000015,48.060001,11.000000,0.498131,0.908312,0.858496,1.121117,21.741133,115.000000,49.330224887708,8.564065583553,115.41
0.630,0.007,56.513645,47.077133,49.171162,57.080009,0.529229,0.476693,0.520192,1.000776,-0.931336,4.114832,-5.937993,26.566177,8726.300781,100.000000,21.000000,-0.000015,-0.000015,48.389999,11.000000,0.495773,0.907739,0.849329,1.280399,21.472988,115.000000,49.330226107653,8.564065653814,115.41
0.640,0.007,56.337402,47.347889,49.438732,56.801186,0.532145,0.474994,0.503675,1.162090,-0.863931,2.072083,-6.830050,25.536766,8707.558594,100.000000,21.000000,-0.000015,-0.000015,48.720001,11.000000,0.493415,0.907165,0.840162,1.439681,21.204844,115.000000,49.330227343526,8.564065739244,115.42
0.650,0.007,56.161163,47.618645,49.706303,56.522358,0.517569,0.471596,0.505096,0.985606,-0.890552,3.097301,-1.823663,24.112133,8688.816406,100.000000,21.000000,-0.000015,-0.000015,49.050003,11.000000,0.491057,0.906592,0.830994,1.598964,20.936699,115.000000,49.330228616565,8.564065860066,115.42
0.660,0.007,56.148201,48.143284,49.925434,56.274658,0.515237,0.473861,0.506516,0.809123,-0.917173,4.122519,3.182725,22.687500,8670.075195,100.000000,21.000000,-0.000015,-0.000015,49.380001,11.000000,0.488699,0.906018,0.821827,1.758246,20.668556,115.000000,49.330229889605,8.564065980888,115.42
0.670,0.008,56.135239,48.667923,50.144569,56.026958,0.520484,0.477826,0.546814,0.908326,-0.895030,2.444889,3.217035,19.143383,8651.333008,100.000000,21.000000,-0.000015,-0.000015,49.709999,11.000000,0.486341,0.905444,0.812660,1.917528,20.400412,115.000000,49.330231162644,8.564066101710,115.42
0.680,0.008,56.122276,49.192566,50.363701,55.779263,0.518735,0.476693,0.587111,1.007529,-0.872886,0.767260,3.251345,15.599265,8632.590820,100.000000,21.000000,-0.000015,-0.000015,50.040001,11.000000,0.483983,0.904871,0.803492,2.076810,20.132267,115.000000,49.330232435683,8.564066222533,115.43
0.690,0.008,56.109314,49.717205,50.582836,55.531563,0.524565,0.480658,0.611403,0.970503,-0.919363,-0.447244,1.973301,11.545957,8613.848633,100.000000,21.000000,-0.000015,-0.000015,50.370003,11.000000,0.481625,0.904297,0.794325,2.236093,19.864122,115.000000,49.330233708722,8.564066343355,115.43
0.700,0.008,56.096352,50.241844,50.801968,55.283863,0.515237,0.476693,0.635695,0.933476,-0.965841,-1.661748,0.695256,7.492648,8595.106445,100.000000,21.000000,-0.000015,-0.000015,50.700001,11.000000,0.479267,0.903724,0.785158,2.395375,19.595978,115.000000,49.330234981748,8.564066467820,115.43
0.710,0.008,55.934177,50.583988,51.021358,55.521801,0.519318,0.478958,0.563390,0.996718,-0.911674,-0.683611,-3.107425,4.492648,8602.292969,100.000000,21.000000,-0.000015,-0.000015,51.020000,11.100000,0.471300,0.899454,0.780001,2.492778,19.144487,115.000000,49.330236254655,8.564066625076,115.44
0.720,0.008,55.772003,50.926132,51.240749,55.759739,0.516403,0.477259,0.491086,1.059959,-0.857507,0.294526,-6.910107,1.492648,8609.479492,100.000000,21.000000,-0.000015,-0.000015,51.340000,11.200000,0.463334,0.895184,0.774845,2.590181,18.692997,115.000000,49.330237527561,8.564066782333,115.44
0.730,0.008,55.609825,51.268280,51.460140,55.997681,0.516986,0.473295,0.361054,1.022699,-0.768834,-0.552936,-2.615650,-0.448529,8616.665039,100.000000,21.000000,-0.000015,-0.000015,51.660000,11.300000,0.455367,0.890913,0.769688,2.687583,18.241507,115.000000,49.330238800468,8.564066939589,115.44
0.740,0.009,55.447651,51.610424,51.679531,56.235619,0.516986,0.478958,0.231021,0.985440,-0.680161,-1.400399,1.678807,-2.389705,8623.851563,100.000000,21.000000,-0.000015,-0.000015,51.980000,11.400000,0.447401,0.886643,0.764531,2.784986,17.790016,115.000000,49.330240073375,8.564067096845,115.45
0.750,0.009,55.285477,51.952568,51.898922,56.473557,0.512904,0.465366,0.176868,0.992027,-0.763431,1.344726,6.536519,-3.488970,8631.038086,100.000000,21.000000,-0.000015,-0.000015,52.300003,11.500000,0.439434,0.882373,0.759375,2.882389,17.338524,115.000000,49.330241346281,8.564067254102,115.45
0.760,0.009,55.370152,52.353382,52.193687,56.299717,0.514654,0.467632,0.122714,0.998614,-0.846702,4.089850,11.394230,-4.588235,8638.224609,100.000000,21.000000,-0.000015,-0.000015,52.620003,11.600000,0.431468,0.878103,0.754218,2.979792,16.887033,115.000000,49.330242619188,8.564067411358,115.45
0.770,0.009,55.454823,52.754196,52.488457,56.125881,0.513488,0.475560,0.177299,0.880548,-0.776377,4.003374,9.081170,-5.577206,8645.411133,100.000000,21.000000,-0.000015,-0.000015,52.940002,11.700000,0.423501,0.873833,0.749062,3.077195,16.435543,115.000000,49.330243945660,8.564067598048,115.46
0.780,0.009,55.539497,53.155006,52.783222,55.952042,0.514071,0.472729,0.231883,0.762482,-0.706052,3.916898,6.768110,-6.566176,8652.596680,100.000000,21.000000,-0.000015,-0.000015,53.260002,11.800000,0.415534,0.869563,0.743905,3.174598,15.984053,115.000000,49.330245285523,8.564067792097,115.46
0.790,0.009,55.624168,53.555820,53.077991,55.778206,0.524565,0.475560,0.277566,0.864347,-0.755693,2.681256,4.946826,-7.562500,8659.783203,100.000000,21.000000,-0.000015,-0.000015,53.580002,11.900000,0.407568,0.865293,0.738748,3.272000,15.532562,115.000000,49.330246625386,8.564067986145,115.46
0.800,0.009,55.708843,53.956635,53.372757,55.604366,0.522816,0.465366,0.323248,0.966211,-0.805335,1.445614,3.125542,-8.558824,8666.969727,100.000000,21.000000,-0.000015,-0.000015,53.900002,12.000000,0.399601,0.861023,0.733592,3.369403,15.081072,115.000000,49.330247965249,8.564068180194,115.46
0.810,0.010,55.901909,54.181702,53.725285,55.732304,0.520484,0.465366,0.270599,0.861486,-1.016164,2.421829,3.111246,-7.943015,8692.673828,100.000000,21.000000,-0.000015,-0.000015,54.190002,12.000000,0.392208,0.853885,0.727862,3.466806,14.705212,115.000000,49.330249305111,8.564068374242,115.47
0.820,0.010,56.094975,54.406769,54.077816,55.860241,0.521650,0.472729,0.217951,0.756760,-1.226994,3.398044,3.096950,-7.327206,8718.377930,100.000000,21.000000,-0.000015,-0.000015,54.480000,12.000000,0.384816,0.846747,0.722133,3.564209,14.329351,115.000000,49.330250644974,8.564068568291,115.47
0.830,0.010,56.288036,54.631840,54.430344,55.988182,0.524565,0.478958,0.139541,0.758657,-0.907878,0.842206,4.157698,-5.216911,8744.083008,100.000000,21.000000,-0.000015,-0.000015,54.770000,12.000000,0.377423,0.839609,0.716403,3.661612,13.953491,115.000000,49.330252012631,8.564068776896,115.47
0.840,0.010,56.481102,54.856907,54.782875,56.116119,0.519318,0.473295,0.061131,0.760553,-0.588762,-1.713633,5.218446,-3.106617,8769.787109,100.000000,21.000000,-0.000015,-0.000015,55.060001,12.000000,0.370030,0.832471,0.710673,3.759014,13.577631,115.000000,49.330253408081,8.564069000057,115.47
0.850,0.010,56.674168,55.081974,55.135403,56.244057,0.509406,0.471596,0.086735,0.753866,-0.843052,-0.727810,2.213470,-0.466911,8795.491211,100.000000,21.000000,-0.000015,-0.000015,55.349998,12.000000,0.362637,0.825333,0.704944,3.856417,13.201771,115.000000,49.330254803531,8.564069223219,115.48
0.860,0.010,56.912189,55.287575,55.513058,56.512333,0.519901,0.471596,0.112338,0.747179,-1.097342,0.258014,-0.791506,2.172795,8821.195313,100.000000,21.000000,-0.000015,-0.000015,55.639999,12.000000,0.355244,0.818195,0.699214,3.953820,12.825910,115.000000,49.330256198980,8.564069446380,115.48
0.870,0.011,57.150211,55.493172,55.890709,56.780609,0.527480,0.472162,0.227953,0.779881,-1.113889,-0.304078,-4.708555,5.935662,8846.899414,100.000000,21.000000,-0.000015,-0.000015,55.930000,12.000000,0.347851,0.811057,0.693485,4.051223,12.450049,115.000000,49.330257594430,8.564069669542,115.48
0.880,0.011,57.388229,55.698772,56.268364,57.048882,0.525148,0.460269,0.343568,0.812583,-1.130436,-0.866171,-8.625603,9.698530,8872.604492,100.000000,21.000000,-0.000015,-0.000015,56.220001,12.000000,0.340458,0.803919,0.687755,4.148626,12.074189,115.000000,49.330258989880,8.564069892704,115.48
0.890,0.011,57.626251,55.904369,56.646015,57.317158,0.510572,0.465366,0.393166,0.704996,-1.089166,-2.176759,-9.940816,11.854780,8898.308594,100.000000,21.000000,-0.000015,-0.000015,56.509998,12.000000,0.333065,0.796781,0.682025,4.246028,11.698329,115.000000,49.330260408908,8.564070125115,115.49
0.900,0.011,57.864273,56.109970,57.023670,57.585434,0.522816,0.475560,0.442764,0.597410,-1.047896,-3.487346,-11.256029,14.011030,8924.012695,100.000000,21.000000,-0.000015,-0.000015,56.799999,12.000000,0.325672,0.789643,0.676296,4.343431,11.322469,115.000000,49.330261882951,8.564070379110,115.49
0.910,0.011,58.077747,56.299992,57.290722,57.866108,0.530396,0.474428,0.373027,0.725389,-1.113451,-2.308394,-10.927225,15.253677,8965.001953,100.000000,21.000000,-0.000015,-0.000015,57.049999,12.000000,0.323186,0.780274,0.664837,4.533653,11.184958,115.000000,49.330263356994,8.564070633106,115.49
0.920,0.011,58.291222,56.490013,57.557774,58.146778,0.520484,0.473861,0.303290,0.853369,-1.179007,-1.129441,-10.598422,16.496325,9005.991211,100.000000,21.000000,-0.000015,-0.000015,57.299999,12.000000,0.320701,0.770906,0.653378,4.723876,11.047449,115.000000,49.330264831037,8.564070887101,115.49
0.930,0.012,58.504696,56.680038,57.824825,58.427452,0.512321,0.475560,0.265246,0.831578,-1.063129,-0.005257,-6.861501,16.522060,9046.980469,100.000000,21.000000,-0.000015,-0.000015,57.549999,12.000000,0.318215,0.761537,0.641918,4.914097,10.909939,115.000000,49.330266305080,8.564071141096,115.49
0.940,0.012,58.718170,56.870060,58.091877,58.708122,0.512321,0.467632,0.227202,0.809788,-0.947250,1.118928,-3.124580,16.547794,9087.969727,100.000000,21.000000,-0.000015,-0.000015,57.799999,12.000000,0.315730,0.752168,0.630459,5.104320,10.772429,115.000000,49.330267779123,8.564071395091,115.49
0.950,0.012,58.931644,57.060081,58.358929,58.988796,0.522816,0.475560,0.316199,0.802836,-1.039719,1.369707,-1.743606,15.830883,9128.958984,100.000000,21.000000,-0.000015,-0.000015,58.049999,12.000000,0.313244,0.742800,0.619000,5.294541,10.634919,115.000000,49.330269253687,8.564071651110,115.49
0.960,0.012,59.200005,57.370815,58.543354,59.221989,0.519901,0.472729,0.405196,0.795883,-1.132188,1.620487,-0.362632,15.113971,9169.948242,100.000000,21.000000,-0.000015,-0.000015,58.299999,12.000000,0.310759,0.733431,0.607541,5.484763,10.497409,115.000000,49.330270732933,8.564071925343,115.50
0.970,0.012,59.468365,57.681549,58.727776,59.455177,0.516986,0.475560,0.486813,0.719833,-1.134476,1.042060,0.457946,13.889706,9210.937500,100.000000,21.000000,-0.000015,-0.000015,58.549999,12.000000,0.308273,0.724062,0.596082,5.674985,10.359900,115.000000,49.330272212180,8.564072199575,115.50
0.980,0.012,59.736725,57.992287,58.912201,59.688370,0.522816,0.480658,0.568429,0.643784,-1.136763,0.463634,1.278525,12.665442,9251.926758,100.000000,21.000000,-0.000015,-0.000015,58.799999,12.000000,0.305788,0.714694,0.584623,5.865207,10.222389,115.000000,49.330273691426,8.564072473808,115.50
0.990,0.013,60.005085,58.303020,59.096622,59.921558,0.522233,0.473295,0.516826,0.709288,-1.146302,0.239758,0.809623,11.830883,9292.916016,100.000000,21.000000,-0.000015,-0.000015,59.049999,12.000000,0.303302,0.705325,0.573163,6.055429,10.084880,115.000000,49.330275170673,8.564072748040,115.50
1.000,0.013,60.273445,58.613754,59.281048,60.154751,0.525148,0.474994,0.465223,0.774791,-1.155841,0.015882,0.340721,10.996324,9333.905273,100.000000,21.000000,-0.000015,-0.000015,59.299999,12.000000,0.300816,0.695956,0.561704,6.245651,9.947370,115.000000,49.330276649919,8.564073022273,115.50
1.010,0.013,60.548149,58.838562,59.545509,60.453098,0.515237,0.473295,0.374973,0.784405,-0.798132,-1.288941,2.419329,10.305147,9369.964844,100.000000,21.000000,-0.000015,-0.000015,59.540001,12.000000,0.303238,0.683465,0.559985,6.364826,9.995498,115.000000,49.330278129166,8.564073296505,115.50
1.020,0.013,60.822853,59.063370,59.809971,60.751446,0.516403,0.473861,0.284724,0.794020,-0.440422,-2.593764,4.497938,9.613971,9406.024414,100.000000,21.000000,-0.000015,-0.000015,59.779999,12.000000,0.305660,0.670973,0.558267,6.484002,10.043627,115.000000,49.330279661118,8.564073598185,115.50
1.030,0.013,61.097553,59.288181,60.074432,61.049789,0.531562,0.471596,0.290330,0.683838,-0.777886,-1.583919,4.420741,8.902575,9442.084961,100.000000,21.000000,-0.000015,-0.000015,60.020000,12.000000,0.308082,0.658482,0.556548,6.603177,10.091755,115.000000,49.330281206246,8.564073906728,115.50
1.040,0.013,61.372257,59.512989,60.338894,61.348137,0.532145,0.465932,0.295935,0.573657,-1.115349,-0.574075,4.343544,8.191177,9478.144531,100.000000,21.000000,-0.000015,-0.000015,60.259998,12.000000,0.310504,0.645990,0.554829,6.722352,10.139884,115.000000,49.330282751375,8.564074215270,115.50
1.050,0.014,61.646961,59.737797,60.603355,61.646484,0.526897,0.458004,0.340261,0.672927,-1.112040,-1.186131,3.202739,7.935662,9514.204102,100.000000,21.000000,-0.000015,-0.000015,60.500000,12.000000,0.312926,0.633499,0.553110,6.841527,10.188012,115.000000,49.330284296503,8.564074523812,115.50
1.060,0.014,61.847473,59.976364,60.769905,61.846966,0.515820,0.465366,0.384588,0.772196,-1.108730,-1.798187,2.061934,7.680148,9550.263672,100.000000,21.000000,-0.000015,-0.000015,60.740002,12.000000,0.315347,0.621007,0.551391,6.960702,10.236140,115.000000,49.330285841631,8.564074832354,115.50
1.070,0.014,62.047985,60.214931,60.936459,62.047447,0.524565,0.476127,0.337933,0.603198,-1.157009,-1.334101,-1.657832,8.027574,9586.323242,100.000000,21.000000,-0.000015,-0.000015,60.980000,12.000000,0.317769,0.608516,0.549672,7.079878,10.284269,115.000000,49.330287386760,8.564075140896,115.50
1.080,0.014,62.248497,60.453495,61.103008,62.247925,0.525731,0.481790,0.291278,0.434200,-1.205288,-0.870014,-5.377598,8.375000,9622.383789,100.000000,21.000000,-0.000015,-0.000015,61.220001,12.000000,0.320191,0.596024,0.547953,7.199053,10.332397,115.000000,49.330288946004,8.564075466004,115.50
1.090,0.014,62.449009,60.692062,61.269562,62.448406,0.520484,0.476127,0.211001,0.589758,-1.252836,-1.517621,1.026919,9.123161,9658.443359,100.000000,21.000000,-0.000015,-0.000015,61.459999,12.000000,0.322613,0.583533,0.546234,7.318228,10.380527,115.000000,49.330290519364,8.564075807678,115.50
1.100,0.014,62.649521,60.930630,61.436111,62.648888,0.518735,0.466499,0.130725,0.745316,-1.300385,-2.165229,7.431436,9.871324,9694.502930,100.000000,21.000000,-0.000015,-0.000015,61.700001,12.000000,0.325035,0.571041,0.544516,7.437403,10.428655,115.000000,49.330292092725,8.564076149352,115.51
1.110,0.015,62.909607,61.186329,61.753929,62.903183,0.520484,0.470463,0.176866,0.737565,-1.110239,-1.374456,4.183431,10.240808,9714.765625,100.000000,21.000000,-0.000015,-0.000015,61.900002,12.000000,0.329496,0.556064,0.545662,7.550849,10.556997,115.000000,49.330293666085,8.564076491026,115.51
1.120,0.015,63.169693,61.442032,62.071751,63.157475,0.518735,0.472162,0.223007,0.729814,-0.920094,-0.583683,0.935426,10.610294,9735.028320,100.000000,21.000000,-0.000015,-0.000015,62.100002,12.000000,0.333957,0.541087,0.546807,7.664295,10.685340,115.000000,49.330295239446,8.564076832700,115.51
1.130,0.015,63.429779,61.697731,62.389568,63.411770,0.512321,0.473295,0.354627,0.650105,-1.292063,0.675019,-1.271845,10.503677,9755.290039,100.000000,21.000000,-0.000015,-0.000015,62.299999,12.000000,0.338418,0.526110,0.547953,7.777740,10.813683,115.000000,49.330296812806,8.564077174374,115.51
1.140,0.015,63.689865,61.953434,62.707390,63.666061,0.507657,0.471596,0.486246,0.570397,-1.664032,1.933722,-3.479116,10.397059,9775.552734,100.000000,21.000000,-0.000015,-0.000015,62.500000,12.000000,0.342880,0.511133,0.549099,7.891186,10.942025,115.000000,49.330298398712,8.564077528491,115.51
1.150,0.015,63.949951,62.209133,63.025208,63.920357,0.526897,0.467065,0.511670,0.770866,-1.353968,1.624331,-5.892246,10.687500,9795.815430,100.000000,21.000000,-0.000015,-0.000015,62.700001,12.000000,0.347341,0.496156,0.550245,8.004632,11.070368,115.000000,49.330300013892,8.564077911642,115.51
1.160,0.015,64.082336,62.388771,63.238125,64.033524,0.519318,0.466499,0.537094,0.971335,-1.043905,1.314939,-8.305377,10.977942,9816.078125,100.000000,21.000000,-0.000015,-0.000015,62.900002,12.000000,0.351802,0.481179,0.551391,8.118077,11.198709,115.000000,49.330301629072,8.564078294793,115.51
1.170,0.016,64.214722,62.568409,63.451042,64.146690,0.518152,0.472162,0.439920,0.740559,-1.209960,3.462420,-3.785046,11.275736,9836.340820,100.000000,21.000000,-0.000015,-0.000015,63.100002,12.000000,0.356263,0.466202,0.552537,8.231524,11.327052,115.000000,49.330303244252,8.564078677944,115.51
1.180,0.016,64.347115,62.748051,63.663956,64.259857,0.515820,0.464233,0.342746,0.509783,-1.376015,5.609901,0.735285,11.573530,9856.602539,100.000000,21.000000,-0.000015,-0.000015,63.299999,12.000000,0.360725,0.451225,0.553683,8.344969,11.455395,115.000000,49.330304859432,8.564079061095,115.51
1.190,0.016,64.479500,62.927689,63.876873,64.373024,0.518735,0.461402,0.285995,0.582140,-1.199642,5.157345,-3.507707,11.948530,9876.865234,100.000000,21.000000,-0.000015,-0.000015,63.500000,12.000000,0.365186,0.436247,0.554829,8.458415,11.583737,115.000000,49.330306474611,8.564079444246,115.51
1.200,0.016,64.611885,63.107327,64.089790,64.486191,0.515820,0.465932,0.229243,0.654496,-1.023270,4.704789,-7.750700,12.323530,9897.127930,100.000000,21.000000,-0.000015,-0.000015,63.700001,12.000000,0.369647,0.421270,0.555975,8.571860,11.712080,115.000000,49.330308085353,8.564079829865,115.51
1.210,0.016,64.573273,63.227520,64.173714,64.413383,0.509406,0.465366,0.267968,0.699906,-0.769807,1.963508,-4.299695,12.044119,9790.708984,100.000000,21.000000,-0.000015,-0.000015,63.800003,12.000000,0.372770,0.411519,0.555975,8.671555,11.801461,115.000000,49.330309656149,8.564080237692,115.52
1.220,0.017,64.534660,63.347710,64.257637,64.340576,0.522816,0.472162,0.306693,0.745316,-0.516344,-0.777773,-0.848689,11.764707,9684.291016,100.000000,21.000000,-0.000015,-0.000015,63.900002,12.000000,0.375893,0.401768,0.555975,8.771250,11.890842,115.000000,49.330311226944,8.564080645518,115.52
1.230,0.017,64.496048,63.467903,64.341560,64.267769,0.522233,0.473295,0.343077,0.627184,-0.568614,-3.301904,-2.186776,11.643383,9577.873047,100.000000,21.000000,-0.000015,-0.000015,64.000000,12.000000,0.379016,0.392017,0.555975,8.870944,11.980225,115.000000,49.330312797740,8.564081053345,115.52
1.240,0.017,64.457436,63.588093,64.425484,64.194962,0.509989,0.469897,0.379460,0.509052,-0.620883,-5.826035,-3.524863,11.522059,9471.454102,100.000000,21.000000,-0.000015,-0.000015,64.100006,12.000000,0.382139,0.382266,0.555975,8.970639,12.069606,115.000000,49.330314368536,8.564081461172,115.52
1.250,0.017,64.418823,63.708286,64.509407,64.122154,0.517569,0.472729,0.379187,0.248668,-0.525397,-10.526472,-0.514168,12.869486,9365.035156,100.000000,21.000000,-0.000015,-0.000015,64.200005,12.000000,0.385262,0.372515,0.555975,9.070333,12.158987,115.000000,49.330315939332,8.564081868998,115.52
1.260,0.017,64.447510,63.630150,64.594887,64.041435,0.518735,0.476127,0.378913,-0.011716,-0.429910,-15.226909,2.496527,14.216912,9258.617188,100.000000,21.000000,-0.000015,-0.000015,64.300003,12.000000,0.388385,0.362764,0.555975,9.170028,12.248368,115.000000,49.330317510127,8.564082276825,115.52
1.270,0.017,64.476189,63.552013,64.680359,63.960716,0.514654,0.470463,0.406446,-0.050272,-0.775696,-14.295853,3.720247,15.481619,9152.199219,100.000000,21.000000,-0.000015,-0.000015,64.400002,12.000000,0.391507,0.353013,0.555975,9.269723,12.337749,115.000000,49.330319105738,8.564082720986,115.52
1.280,0.018,64.504875,63.473873,64.765839,63.879997,0.513488,0.468764,0.433978,-0.088829,-1.121481,-13.364798,4.943967,16.746325,9045.780273,100.000000,21.000000,-0.000015,-0.000015,64.500000,12.000000,0.394630,0.343262,0.555975,9.369417,12.427132,115.000000,49.330320707552,8.564083174231,115.52
1.290,0.018,64.533554,63.395737,64.851311,63.799278,0.515820,0.467632,0.481884,0.034692,-0.962532,-15.123137,-0.411238,17.299633,8939.361328,100.000000,21.000000,-0.000015,-0.000015,64.600006,12.000000,0.397753,0.333511,0.555975,9.469112,12.516513,115.000000,49.330322309367,8.564083627475,115.52
1.300,0.018,64.562241,63.317600,64.936790,63.718559,0.515820,0.468198,0.529791,0.158214,-0.803582,-16.881477,-5.766443,17.852942,8832.943359,100.000000,21.000000,-0.000015,-0.000015,64.700005,12.000000,0.400876,0.323760,0.555975,9.568807,12.605894,115.000000,49.330323911181,8.564084080720,115.53
1.310,0.018,64.580170,63.368481,64.930832,63.724361,0.517569,0.474428,0.527592,0.020920,-0.864125,-12.326128,-4.988752,18.323530,8767.562500,100.000000,21.000000,-0.000015,-0.000015,64.800003,12.000000,0.400749,0.325799,0.554829,9.661626,12.582975,115.000000,49.330325512996,8.564084533965,115.53
1.320,0.018,64.598099,63.419361,64.924873,63.730164,0.520484,0.468764,0.525393,-0.116375,-0.924668,-7.770778,-4.211061,18.794119,8702.180664,100.000000,21.000000,-0.000015,-0.000015,64.900002,12.000000,0.400621,0.327839,0.553683,9.754445,12.560058,115.000000,49.330327114810,8.564084987209,115.53
1.330,0.019,64.616020,63.470242,64.918922,63.735970,0.518735,0.468198,0.499236,0.050794,-0.837553,-4.304062,-2.678551,19.025736,8636.799805,100.000000,21.000000,-0.000015,-0.000015,65.000008,12.000000,0.400494,0.329878,0.552537,9.847264,12.537139,115.000000,49.330328723675,8.564085459988,115.53
1.340,0.019,64.633949,63.521122,64.912964,63.741772,0.521650,0.469897,0.473079,0.217962,-0.750437,-0.837346,-1.146042,19.257353,8571.418945,100.000000,21.000000,-0.000015,-0.000015,65.100006,12.000000,0.400366,0.331918,0.551391,9.940084,12.514221,115.000000,49.330330339591,8.564085952301,115.53
1.350,0.019,64.651878,63.572002,64.907005,63.747574,0.518152,0.467632,0.490248,0.087721,-0.728001,1.904896,-2.498425,19.025736,8506.037109,100.000000,21.000000,-0.000015,-0.000015,65.200005,12.000000,0.400239,0.333957,0.550245,10.032902,12.491302,115.000000,49.330331955507,8.564086444614,115.53
1.360,0.019,64.837769,63.663380,64.930061,63.948318,0.516986,0.470463,0.507417,-0.042521,-0.705565,4.647138,-3.850807,18.794119,8440.656250,100.000000,21.000000,-0.000015,-0.000015,65.300003,12.000000,0.400111,0.335997,0.549099,10.125721,12.468384,115.000000,49.330333571423,8.564086936928,115.53
1.370,0.019,65.023666,63.754757,64.953110,64.149063,0.523982,0.468764,0.529748,0.047600,-0.844172,7.615177,-4.965878,18.045956,8375.275391,100.000000,21.000000,-0.000015,-0.000015,65.400002,12.000000,0.399984,0.338036,0.547953,10.218540,12.445466,115.000000,49.330335187339,8.564087429241,115.54
1.380,0.019,65.209557,63.846130,64.976166,64.349808,0.534477,0.471030,0.552078,0.137721,-0.982778,10.583217,-6.080951,17.297794,8309.893555,100.000000,21.000000,-0.000015,-0.000015,65.500008,12.000000,0.399856,0.340075,0.546807,10.311359,12.422547,115.000000,49.330336803255,8.564087921554,115.54
1.390,0.020,65.395454,63.937508,64.999214,64.550552,0.529813,0.475560,0.532654,0.091480,-0.859502,10.040341,-5.660654,16.875000,8244.512695,100.000000,21.000000,-0.000015,-0.000015,65.600006,12.000000,0.399729,0.342115,0.545662,10.404179,12.399630,115.000000,49.330338433901,8.564088428253,115.54
1.400,0.020,65.581345,64.028885,65.022270,64.751297,0.526314,0.478958,0.513230,0.045238,-0.736226,9.497466,-5.240358,16.452206,8179.131348,100.000000,21.000000,-0.000015,-0.000015,65.700005,12.000000,0.399601,0.344154,0.544516,10.496998,12.376711,115.000000,49.330340098914,8.564088968517,115.54
1.410,0.020,65.944855,64.102089,65.167061,65.286789,0.509989,0.478392,0.505712,0.303027,-0.838137,11.202960,2.490808,15.511030,8188.686523,100.000000,21.000000,-0.000015,-0.000015,65.810005,12.000000,0.396224,0.356646,0.545089,10.582941,12.227742,115.000000,49.330341763928,8.564089508781,115.54
1.420,0.020,66.308372,64.175293,65.311852,65.822289,0.514071,0.474994,0.498194,0.560816,-0.940047,12.908454,10.221974,14.569854,8198.241211,100.000000,21.000000,-0.000015,-0.000015,65.920006,12.000000,0.392846,0.369137,0.545662,10.668885,12.078773,115.000000,49.330343428942,8.564090049045,115.54
1.430,0.020,66.671883,64.248505,65.456650,66.357780,0.518152,0.473295,0.517152,0.783906,-0.960829,11.901491,10.136200,13.349266,8207.796875,100.000000,21.000000,-0.000015,-0.000015,66.030006,12.000000,0.389468,0.381629,0.546234,10.754829,11.929804,115.000000,49.330345093956,8.564090589310,115.54
1.440,0.021,67.035400,64.321709,65.601440,66.893280,0.515820,0.480091,0.536111,1.006997,-0.981610,10.894529,10.050426,12.128677,8217.351563,100.000000,21.000000,-0.000015,-0.000015,66.140007,12.000000,0.386090,0.394120,0.546807,10.840773,11.780834,115.000000,49.330346758969,8.564091129574,115.54
1.450,0.021,67.398911,64.394913,65.746231,67.428772,0.519901,0.472162,0.484527,0.917807,-0.805870,11.424913,9.721622,11.299633,8226.907227,100.000000,21.000000,-0.000015,-0.000015,66.250000,12.000000,0.382712,0.406612,0.547380,10.926716,11.631866,115.000000,49.330348422240,8.564091671954,115.54
1.460,0.021,67.349541,64.625694,65.826271,67.371529,0.517569,0.476693,0.432944,0.828618,-0.630130,11.955298,9.392818,10.470589,8236.461914,100.000000,21.000000,-0.000015,-0.000015,66.360001,12.000000,0.379335,0.419103,0.547953,11.012660,11.482897,115.000000,49.330350069818,8.564092233376,115.55
1.470,0.021,67.300171,64.856476,65.906311,67.314285,0.519901,0.481224,0.286604,0.767406,-0.787230,10.089344,7.319928,8.946692,8246.017578,100.000000,21.000000,-0.000015,-0.000015,66.470001,12.000000,0.375957,0.431595,0.548526,11.098604,11.333927,115.000000,49.330351717397,8.564092794798,115.55
1.480,0.021,67.250809,65.087250,65.986343,67.257042,0.522816,0.473861,0.140263,0.706194,-0.944330,8.223391,5.247038,7.422795,8255.572266,100.000000,21.000000,-0.000015,-0.000015,66.580002,12.000000,0.372579,0.444087,0.549099,11.184547,11.184958,115.000000,49.330353364975,8.564093356219,115.55
1.490,0.021,67.201439,65.318031,66.066383,67.199799,0.521650,0.469897,0.043633,0.430108,-0.961559,4.792225,5.667335,6.165442,8265.127930,100.000000,21.000000,-0.000015,-0.000015,66.690002,12.000000,0.369201,0.456578,0.549672,11.270491,11.035989,115.000000,49.330355012554,8.564093917641,115.55
1.500,0.022,67.152069,65.548813,66.146423,67.142555,0.525148,0.471596,-0.052997,0.154022,-0.978787,1.361060,6.087631,4.908089,8274.682617,100.000000,21.000000,-0.000015,-0.000015,66.800003,12.000000,0.365823,0.469070,0.550245,11.356435,10.887020,115.000000,49.330356660132,8.564094479063,115.55
1.510,0.022,67.494621,65.792831,66.381615,67.420326,0.527480,0.472162,0.012132,0.328077,-0.985406,-3.253862,7.319928,4.678309,8317.176758,100.000000,21.000000,-0.000015,-0.000015,67.000000,12.000000,0.362127,0.477546,0.554829,11.437795,10.719717,115.000000,49.330358307711,8.564095040485,115.55
1.520,0.022,67.837173,66.036850,66.616806,67.698097,0.526314,0.478392,0.077261,0.502132,-0.992025,-7.868784,8.552226,4.448530,8359.669922,100.000000,21.000000,-0.000015,-0.000015,67.200005,12.000000,0.358430,0.486022,0.559412,11.519155,10.552413,115.000000,49.330360007610,8.564095639394,115.55
1.530,0.022,68.179726,66.280869,66.851997,67.975868,0.521650,0.479525,0.195660,0.636299,-1.113062,-7.691029,7.388548,4.593750,8402.164063,100.000000,21.000000,-0.000015,-0.000015,67.400002,12.000000,0.354734,0.494499,0.563996,11.600514,10.385109,115.000000,49.330361720590,8.564096247674,115.55
1.540,0.022,68.522278,66.524887,67.087189,68.253639,0.525148,0.477259,0.314060,0.770466,-1.234099,-7.513273,6.224870,4.738971,8444.657227,100.000000,21.000000,-0.000015,-0.000015,67.600006,12.000000,0.351037,0.502975,0.568580,11.681874,10.217806,115.000000,49.330363433570,8.564096855954,115.55
1.550,0.023,68.864830,66.768906,67.322380,68.531410,0.516403,0.475560,0.317806,0.812283,-1.034415,-8.421268,3.348556,5.450368,8487.151367,100.000000,21.000000,-0.000015,-0.000015,67.800003,12.000000,0.347341,0.511452,0.573164,11.763235,10.050503,115.000000,49.330365146550,8.564097464234,115.55
1.560,0.023,69.037758,67.003059,67.672318,68.783066,0.527480,0.470463,0.321552,0.854101,-0.834730,-9.329263,0.472242,6.161765,8529.645508,100.000000,21.000000,-0.000015,-0.000015,68.000000,12.000000,0.343645,0.519928,0.577747,11.844595,9.883199,115.000000,49.330366859531,8.564098072514,115.56
1.570,0.023,69.210693,67.237213,68.022255,69.034721,0.517569,0.477259,0.250630,0.916477,-0.731165,-7.637221,0.057664,7.354780,8572.138672,100.000000,21.000000,-0.000015,-0.000015,68.200005,12.000000,0.339948,0.528404,0.582331,11.925955,9.715895,115.000000,49.330368572511,8.564098680794,115.56
1.580,0.023,69.383621,67.471367,68.372200,69.286385,0.506491,0.471030,0.179709,0.978853,-0.627599,-5.945179,-0.356914,8.547794,8614.632813,100.000000,21.000000,-0.000015,-0.000015,68.400002,12.000000,0.336252,0.536881,0.586914,12.007315,9.548592,115.000000,49.330370303910,8.564099307460,115.56
1.590,0.023,69.556557,67.705521,68.722137,69.538040,0.526314,0.473861,0.168746,0.816043,-0.771802,-2.330493,0.463665,8.950368,8657.125977,100.000000,21.000000,-0.000015,-0.000015,68.600006,12.000000,0.332555,0.545357,0.591498,12.088675,9.381289,115.000000,49.330372053728,8.564099952514,115.56
1.600,0.024,69.729485,67.939674,69.072075,69.789696,0.528063,0.477826,0.157782,0.653232,-0.916005,1.284193,1.284243,9.352942,8699.620117,100.000000,21.000000,-0.000015,-0.000015,68.800003,12.000000,0.328859,0.553833,0.596082,12.170034,9.213984,115.000000,49.330373803546,8.564100597568,115.56
1.610,0.024,69.850014,68.205238,69.190445,69.936096,0.523982,0.476127,0.187245,0.542053,-1.149125,3.736260,-0.740041,8.827206,8719.690430,99.334404,21.000000,-0.000015,-0.000015,69.080002,12.000000,0.326883,0.544847,0.604103,12.251394,9.108561,115.000000,49.330375553364,8.564101242621,115.56
1.620,0.024,69.970543,68.470802,69.308823,70.082504,0.528646,0.474994,0.216708,0.430873,-1.382244,6.188328,-2.764326,8.301471,8739.760742,98.668800,21.000000,-0.000015,-0.000015,69.360001,12.000000,0.324907,0.535861,0.612125,12.332754,9.003136,115.000000,49.330377303182,8.564101887675,115.56
1.630,0.024,70.091064,68.736366,69.427193,70.228905,0.532145,0.481790,0.224563,0.629014,-1.274688,5.607018,0.901116,8.119486,8759.832031,98.003204,21.000000,-0.000015,-0.000015,69.639999,12.000000,0.322932,0.526875,0.620146,12.414115,8.897712,115.000000,49.330379053000,8.564102532728,115.56
1.640,0.024,70.211594,69.001930,69.545570,70.375313,0.528063,0.478958,0.232418,0.827154,-1.167132,5.025710,4.566558,7.937500,8779.902344,97.337608,21.000000,-0.000015,-0.000015,69.919998,12.000000,0.320956,0.517888,0.628167,12.495475,8.792288,115.000000,49.330380819197,8.564103191008,115.56
1.650,0.025,70.332123,69.267494,69.663940,70.521713,0.523982,0.476693,0.257113,0.672561,-1.169517,5.690612,2.974006,7.018383,8799.972656,96.672012,21.000000,-0.000015,-0.000015,70.199997,12.000000,0.318980,0.508902,0.636189,12.576835,8.686863,115.000000,49.330382623612,8.564103880148,115.56
1.660,0.025,70.551109,69.485291,69.837486,70.714806,0.529229,0.481790,0.281807,0.517967,-1.171901,6.355514,1.381455,6.099265,8820.042969,96.006409,21.000000,-0.000015,-0.000015,70.480003,12.000000,0.317004,0.499916,0.644210,12.658195,8.581439,115.000000,49.330384428027,8.564104569288,115.57
1.670,0.025,70.770103,69.703094,70.011032,70.907898,0.535060,0.481790,0.310248,0.585134,-1.147860,2.644744,-0.914450,5.518383,8840.113281,95.340813,21.000000,-0.000015,-0.000015,70.760002,12.000000,0.315029,0.490930,0.652232,12.739554,8.476015,115.000000,49.330386232442,8.564105258428,115.57
1.680,0.025,70.989090,69.920891,70.184570,71.100998,0.522816,0.479525,0.338690,0.652301,-1.123818,-1.066026,-3.210355,4.937500,8860.184570,94.675217,21.000000,-0.000015,-0.000015,71.040001,12.000000,0.313053,0.481944,0.660253,12.820915,8.370591,115.000000,49.330388036858,8.564105947568,115.57
1.690,0.025,71.208084,70.138695,70.358116,71.294090,0.512904,0.468764,0.293662,0.548972,-1.200080,0.216698,0.152016,5.136030,8880.254883,94.009613,21.000000,-0.000015,-0.000015,71.320000,12.000000,0.311077,0.472957,0.668274,12.902275,8.265166,115.000000,49.330389841273,8.564106636708,115.57
1.700,0.026,71.427071,70.356491,70.531662,71.487183,0.543222,0.476693,0.248634,0.445644,-1.276343,1.499421,3.514387,5.334559,8900.325195,93.344017,21.000000,-0.000015,-0.000015,71.599998,12.000000,0.309102,0.463971,0.676296,12.983635,8.159742,115.000000,49.330391640702,8.564107326424,115.57
1.710,0.026,71.617928,70.315994,70.741211,71.713249,0.605607,0.827263,0.197443,0.509617,-1.201200,-0.350199,-1.108873,6.071692,8916.282227,87.920502,21.000000,-0.000015,-0.000015,71.690002,12.000000,0.308464,0.429619,0.684317,13.066141,8.123073,115.000000,49.330393395250,8.564108021331,115.58
1.720,0.026,71.808784,70.275497,70.950760,71.939316,1.019562,2.152522,0.146251,0.573590,-1.126056,-2.199819,-5.732133,6.808824,8932.239258,82.496986,21.000000,-0.000015,-0.000015,71.779999,12.000000,0.307827,0.395268,0.692339,13.148646,8.086404,115.000000,49.330395149799,8.564108716238,115.58
1.730,0.026,71.999649,70.235001,71.160309,72.165390,2.526709,3.870260,0.213114,0.388324,-0.939658,-2.218075,-0.820098,7.571692,8948.196289,77.073471,21.000000,-0.000015,-0.000015,71.869995,12.000000,0.307190,0.360916,0.700360,13.231153,8.049734,115.000000,49.330396904348,8.564109411145,115.58
1.740,0.026,72.190506,70.194504,71.369858,72.391457,4.749240,5.450942,0.279977,0.203058,-0.753260,-2.236331,4.091938,8.334559,8964.153320,71.649956,21.000000,-0.000015,-0.000015,71.959999,12.000000,0.306552,0.326564,0.708382,13.313659,8.013065,115.000000,49.330398658897,8.564110106051,115.58
1.750,0.027,72.381363,70.154007,71.579407,72.617523,6.060487,7.247969,0.372622,0.421292,-0.798764,-2.684083,-4.765738,9.505515,8980.111328,66.226440,21.000000,-0.000015,-0.000015,72.050003,12.000000,0.305915,0.292213,0.716403,13.396164,7.976396,115.000000,49.330400413446,8.564110800958,115.59
1.760,0.027,72.487000,69.812645,71.539001,72.716446,7.566468,9.051226,0.465268,0.639526,-0.844269,-3.131835,-13.623412,10.676471,8996.068359,60.802929,21.000000,-0.000015,-0.000015,72.139999,12.000000,0.305278,0.257861,0.724424,13.478670,7.939726,115.000000,49.330402167995,8.564111495865,115.59
1.770,0.027,72.592636,69.471275,71.498596,72.815369,9.249108,10.687410,0.422151,0.441053,-1.016845,-3.958159,-6.012331,11.227942,9012.025391,55.379414,21.000000,-0.000015,-0.000015,72.229996,12.000000,0.304640,0.223509,0.732446,13.561176,7.903057,115.000000,49.330403935788,8.564112216073,115.59
1.780,0.027,72.698265,69.129913,71.458183,72.914284,10.632651,12.503127,0.379034,0.242580,-1.189422,-4.784482,1.598751,11.779412,9027.982422,49.955902,21.000000,-0.000015,-0.000015,72.320000,12.000000,0.304003,0.189158,0.740467,13.643682,7.866387,115.000000,49.330405706891,8.564112942606,115.59
1.790,0.027,72.803902,68.788544,71.417778,73.013206,11.764323,13.706619,0.296248,0.313573,-0.999228,-4.037909,-0.522745,11.762868,9043.939453,44.532387,21.000000,-0.000015,-0.000015,72.410004,12.000000,0.303366,0.154806,0.748489,13.726188,7.829718,115.000000,49.330407477995,8.564113669140,115.60
1.800,0.028,72.909538,68.447182,71.377373,73.112129,13.135039,14.451936,0.213461,0.384565,-0.809033,-3.291335,-2.644242,11.746324,9059.896484,39.108871,21.000000,-0.000015,-0.000015,72.500000,12.000000,0.302728,0.120454,0.756510,13.808694,7.793049,115.000000,49.330409249098,8.564114395673,115.60
1.810,0.028,72.735504,67.835579,71.264183,72.935654,14.121535,15.043771,0.248683,0.126144,-0.911625,-3.985063,0.509411,11.095589,9020.620117,35.197983,21.000000,-0.000015,-0.000015,72.459999,12.000000,0.300944,0.075650,0.761667,13.899221,7.742629,115.000000,49.330411020202,8.564115122207,115.60
1.820,0.028,72.561470,67.223976,71.150986,72.759178,14.220068,15.992407,0.283904,-0.132276,-1.014217,-4.678790,3.663064,10.444854,8981.342773,31.287098,21.000000,-0.000015,-0.000015,72.419998,12.000000,0.299159,0.030847,0.766823,13.989749,7.692208,115.000000,49.330412791305,8.564115848740,115.60
1.830,0.028,72.387436,66.612366,71.037796,72.582703,14.431710,16.688450,0.328401,-0.022062,-0.839646,-4.854624,-0.182505,9.691177,8942.066406,27.376209,21.000000,-0.000015,-0.000015,72.379997,12.000000,0.297375,-0.013957,0.771980,14.080276,7.641788,115.000000,49.330414547155,8.564116581270,115.61
1.840,0.028,72.213402,66.000763,70.924599,72.406227,15.978503,17.313700,0.372898,0.088153,-0.665074,-5.030458,-4.028074,8.937500,8902.790039,23.465322,21.000000,-0.000015,-0.000015,72.339996,12.000000,0.295590,-0.058761,0.777136,14.170803,7.591368,115.000000,49.330416287751,8.564117319797,115.61
1.850,0.029,72.039368,65.389160,70.811409,72.229752,18.090841,18.958380,0.303686,-0.327589,-0.691403,-7.541137,-0.213956,8.040442,8863.513672,19.554436,21.000000,-0.000015,-0.000015,72.300003,12.000000,0.293806,-0.103565,0.782293,14.261331,7.540947,115.000000,49.330418028347,8.564118058323,115.61
1.860,0.029,71.656822,64.672684,70.573883,71.794235,20.548918,21.567553,0.234473,-0.743331,-0.717732,-10.051816,3.600162,7.143383,8824.236328,15.643549,21.000000,-0.000015,-0.000015,72.260002,12.000000,0.292021,-0.148369,0.787450,14.351858,7.490527,115.000000,49.330419768943,8.564118796850,115.62
1.870,0.029,71.274277,63.956200,70.336365,71.358719,23.022154,24.389107,0.175669,-0.753677,-0.730435,-10.204590,6.599420,6.163604,8784.959961,11.732661,21.000000,-0.000015,-0.000015,72.220001,12.000000,0.290237,-0.193172,0.792606,14.442386,7.440107,115.000000,49.330421509539,8.564119535376,115.62
1.880,0.029,70.891731,63.239723,70.098839,70.923195,24.908274,26.075695,0.116865,-0.764023,-0.743137,-10.357364,9.598678,5.183824,8745.683594,7.821774,21.000000,-0.000015,-0.000015,72.180000,12.000000,0.288452,-0.237976,0.797763,14.532912,7.389687,115.000000,49.330423250135,8.564120273903,115.62
1.890,0.029,70.509186,62.523243,69.861320,70.487679,26.105829,27.377167,0.155539,-0.869747,-0.959953,-10.433270,6.585124,4.169118,8706.406250,3.910887,21.000000,-0.000015,-0.000015,72.139999,12.000000,0.286668,-0.282780,0.802920,14.623440,7.339266,115.000000,49.330424985038,8.564121016975,115.63
1.900,0.030,70.126640,61.806763,69.623795,70.052162,27.433401,28.130978,0.194213,-0.975471,-1.176768,-10.509176,3.571571,3.154412,8667.129883,0.000000,21.000000,-0.000015,-0.000015,72.099998,12.000000,0.284883,-0.327584,0.808076,14.713967,7.288846,115.000000,49.330426706660,8.564121770653,115.63
1.910,0.030,69.998665,61.696434,69.527954,69.858543,28.377335,29.231960,0.228142,-0.833951,-1.143090,-11.782291,5.644461,2.601103,8629.629883,0.000000,21.000000,-0.000015,-0.000015,71.900002,12.000000,0.281697,-0.366906,0.813233,14.815954,7.226966,115.000000,49.330428428282,8.564122524332,115.63
1.920,0.030,69.870689,61.586105,69.432114,69.664917,29.795860,30.635376,0.262070,-0.692432,-1.109412,-13.055407,7.717351,2.047795,8592.129883,0.000000,21.000000,-0.000015,-0.000015,71.699997,12.000000,0.278510,-0.406229,0.818389,14.917940,7.165087,115.000000,49.330430149904,8.564123278010,115.64
1.930,0.030,69.742722,61.475780,69.336281,69.471298,31.427195,31.335384,0.251420,-0.663323,-1.316007,-11.370090,3.542979,2.794118,8554.628906,0.000000,21.000000,-0.000015,-0.000015,71.500000,12.000000,0.275324,-0.445552,0.823546,15.019927,7.103208,115.000000,49.330431871526,8.564124031688,115.64
1.940,0.030,69.614746,61.365452,69.240440,69.277672,32.561779,33.016308,0.240771,-0.634214,-1.522603,-9.684774,-0.631393,3.540442,8517.128906,0.000000,21.000000,-0.000015,-0.000015,71.299995,12.000000,0.272137,-0.484875,0.828703,15.121913,7.041328,115.000000,49.330433593149,8.564124785367,115.64
1.950,0.031,69.486771,61.255123,69.144600,69.084053,33.521458,34.190353,0.253816,-0.644394,-1.353968,-5.834682,-4.013779,4.487133,8479.628906,0.000000,21.000000,-0.000015,-0.000015,71.099998,12.000000,0.268950,-0.524198,0.833859,15.223900,6.979448,115.000000,49.330435303802,8.564125536352,115.65
1.960,0.031,69.099815,60.403915,68.693642,68.640091,34.446152,34.581135,0.266862,-0.654574,-1.185334,-1.984590,-7.396164,5.433824,8442.128906,0.000000,21.000000,-0.000015,-0.000015,70.900002,12.000000,0.265764,-0.563520,0.839016,15.325887,6.917569,115.000000,49.330436915739,8.564126263098,115.65
1.970,0.031,68.712860,59.552704,68.242683,68.196136,35.265316,34.896591,0.318455,-0.680489,-1.110775,-0.369416,-8.597011,6.575368,8404.628906,0.000000,21.000000,-0.000015,-0.000015,70.699997,12.000000,0.262577,-0.602843,0.844172,15.427873,6.855690,115.000000,49.330438527676,8.564126989844,115.65
1.980,0.031,68.325897,58.701496,67.791733,67.752174,36.002857,34.933968,0.370048,-0.706404,-1.036215,1.245759,-9.797857,7.716912,8367.127930,0.000000,21.000000,-0.000015,-0.000015,70.500000,12.000000,0.259390,-0.642166,0.849329,15.529860,6.793810,115.000000,49.330440139614,8.564127716590,115.66
1.990,0.031,67.938942,57.850285,67.340775,67.308220,36.349762,34.993435,0.424762,-0.853413,-0.998011,3.426869,-7.490516,8.965075,8329.627930,0.000000,21.000000,-0.000015,-0.000015,70.299995,12.000000,0.256204,-0.681489,0.854486,15.631845,6.731931,115.000000,49.330441751551,8.564128443337,115.66
2.000,0.032,67.551987,56.999077,66.889816,66.864258,36.559071,35.118599,0.479475,-1.000421,-0.959807,5.607980,-5.183175,10.213236,8292.127930,0.000000,21.000000,-0.000015,-0.000015,70.099998,12.000000,0.253017,-0.720812,0.859642,15.733832,6.670051,115.000000,49.330443363488,8.564129170083,115.66
