time,RPM dup 1,InlineAcc,LateralAcc,VerticalAcc,RollRate,PitchRate,YawRate,Gear,RPM dup 2,TPS
0.000,0.000000,0.016979,0.102975,-0.970243,2.798294,1.819241,9.234162,0.000000,0.000000,0.000000
0.010,0.000000,0.011974,0.115561,-0.965102,2.637809,1.819241,9.284363,0.000000,0.000000,0.000000
0.020,0.000000,0.006969,0.128146,-0.959961,2.477324,1.819241,9.334562,0.000000,0.000000,0.000000
0.030,0.000000,0.018480,0.131579,-0.978050,2.687752,1.924079,9.423628,0.000000,0.000000,0.000000
0.040,0.000000,0.029992,0.135011,-0.996138,2.898181,2.028916,9.512692,0.000000,0.000000,0.000000
0.050,0.000000,0.038973,0.131579,-1.004924,3.303056,2.184182,9.653578,0.000000,0.000000,0.000000
0.060,0.000000,0.047955,0.128146,-1.013710,3.707932,2.339448,9.794462,0.000000,0.000000,0.000000
0.070,0.000000,0.031966,0.149886,-0.990018,3.512819,2.618130,9.810656,0.000000,0.000000,0.000000
0.080,0.000000,0.015978,0.171625,-0.966326,3.317706,2.896812,9.826849,0.000000,0.000000,0.000000
0.090,0.000000,0.018480,0.178490,-0.976826,3.163214,2.757471,9.987165,0.000000,0.000000,0.000000
0.100,0.000000,0.020983,0.185355,-0.987325,3.008723,2.618130,10.147483,0.000000,0.000000,0.000000
0.110,0.000000,0.018981,0.146453,-0.986835,3.058666,2.688464,10.194445,0.000000,0.000000,0.000000
0.120,0.000000,0.016979,0.107551,-0.986346,3.108609,2.758798,10.241406,0.000000,0.000000,0.000000
0.130,0.000000,0.016478,0.112404,-0.998069,3.127921,2.373951,10.366097,0.000000,0.000000,0.000000
0.140,0.000000,0.015978,0.117257,-1.009793,3.147233,1.989105,10.490788,0.000000,0.000000,0.000000
0.150,0.000000,0.017980,0.123320,-1.010282,2.937470,1.989105,10.506982,0.000000,0.000000,0.000000
0.160,0.000000,0.019982,0.129383,-1.010772,2.727707,1.989105,10.523175,0.000000,0.000000,0.000000
0.170,0.000000,0.024987,0.137694,-1.017599,2.708395,1.798008,10.542608,0.000000,0.000000,0.000000
0.180,0.000000,0.029992,0.146006,-1.024427,2.689084,1.606912,10.562040,0.000000,0.000000,0.000000
0.190,0.000000,0.025988,0.155694,-1.011262,2.848903,1.991759,10.576614,0.000000,0.000000,0.000000
0.200,0.000000,0.021984,0.165382,-0.998097,3.008723,2.376606,10.591188,0.000000,0.000000,0.000000
0.210,0.000000,0.020983,0.163871,-0.993690,3.163214,2.306272,10.856764,0.000000,0.000000,0.000000
0.220,0.000000,0.019982,0.162360,-0.989284,3.317706,2.235937,11.122340,0.000000,0.000000,0.000000
0.230,0.000000,0.015978,0.151642,-0.980743,3.388293,2.271768,11.102907,0.000000,0.000000,0.000000
0.240,0.000000,0.011974,0.140924,-0.972202,3.458880,2.307599,11.083475,0.000000,0.000000,0.000000
0.250,0.000000,0.013475,0.135107,-0.977560,3.493507,2.168257,11.068901,0.000000,0.000000,0.000000
0.260,0.000000,0.014977,0.129290,-0.982919,3.528135,2.028916,11.054327,0.000000,0.000000,0.000000
0.270,0.000000,0.022957,0.125290,-0.988549,3.528135,1.693171,11.174160,0.000000,0.000000,0.000000
0.280,0.000000,0.030937,0.121290,-0.994180,3.528135,1.357425,11.293993,0.000000,0.000000,0.000000
0.290,0.000000,0.033440,0.112498,-0.992221,3.023373,1.588333,11.208166,0.000000,0.000000,0.000000
0.300,0.000000,0.035942,0.103707,-0.990263,2.518610,1.819241,11.122340,0.000000,0.000000,0.000000
0.310,0.000000,0.027962,0.102753,-0.992711,2.587865,1.853745,11.263225,0.000000,0.000000,0.000000
0.320,0.000000,0.019982,0.101799,-0.995159,2.657120,1.888248,11.404109,0.000000,0.000000,0.000000
0.330,0.000000,0.026461,0.117578,-0.995649,2.742357,2.217359,11.315044,0.000000,0.000000,0.000000
0.340,0.000000,0.032939,0.133356,-0.996138,2.827594,2.546469,11.225980,0.000000,0.000000,0.000000
0.350,0.000000,0.038445,0.146893,-1.013710,3.163214,2.427034,11.350671,0.000000,0.000000,0.000000
0.360,0.000000,0.043951,0.160430,-1.031281,3.498835,2.307599,11.475362,0.000000,0.000000,0.000000
0.370,0.000000,0.035219,0.152783,-1.012105,3.113937,2.437650,11.360387,0.000000,0.000000,0.000000
0.380,0.000000,0.026488,0.145136,-0.992928,2.729039,2.567702,11.245412,0.000000,0.000000,0.000000
0.390,0.000000,0.024236,0.130573,-0.978050,2.771657,2.533198,11.200069,0.000000,0.000000,0.000000
0.400,0.000000,0.021984,0.116010,-0.963171,2.814276,2.498695,11.154727,0.000000,0.000000,0.000000
0.410,0.000000,0.023736,0.115306,-0.967441,3.093959,2.464191,11.200069,0.000000,0.000000,0.000000
0.420,0.000000,0.025487,0.114602,-0.971712,3.373643,2.429688,11.245412,0.000000,0.000000,0.000000
0.430,0.000000,0.027462,0.121201,-0.981967,3.313711,2.331486,11.255128,0.000000,0.000000,0.000000
0.440,0.000000,0.029436,0.127800,-0.992221,3.253778,2.233283,11.264844,0.000000,0.000000,0.000000
0.450,0.000000,0.028685,0.129520,-0.984415,2.886194,2.216032,11.166063,0.000000,0.000000,0.000000
0.460,0.000000,0.027934,0.131240,-0.976608,2.518610,2.198780,11.067282,0.000000,0.000000,0.000000
0.470,0.000000,0.025460,0.131816,-0.977832,2.578542,2.162949,11.075378,0.000000,0.000000,0.000000
0.480,0.000000,0.022985,0.132392,-0.979056,2.638475,2.127119,11.083475,0.000000,0.000000,0.000000
0.490,0.000000,0.026961,0.135207,-0.992711,2.778316,2.285038,11.164444,0.000000,0.000000,0.000000
0.500,0.000000,0.030937,0.138023,-1.006366,2.918158,2.442958,11.245412,0.000000,0.000000,0.000000
0.510,0.000000,0.029964,0.137060,-1.006610,2.893519,2.575664,11.289135,0.000000,0.000000,0.000000
0.520,0.000000,0.028991,0.136097,-1.006855,2.868881,2.708370,11.332857,0.000000,0.000000,0.000000
0.530,0.000000,0.023485,0.128089,-1.003354,2.953851,2.718588,11.361358,0.000000,0.000000,0.000000
0.540,0.000000,0.018755,0.120984,-1.000273,3.025903,2.716465,11.379495,0.000000,0.000000,0.000000
0.550,0.000000,0.016503,0.115452,-0.998097,3.051208,2.611628,11.327675,0.000000,0.000000,0.000000
0.560,0.000000,0.014924,0.110743,-0.995991,3.078444,2.487548,11.278446,0.000000,0.000000,0.000000
0.570,0.000000,0.019401,0.113443,-0.994522,3.123060,2.190287,11.252537,0.000000,0.000000,0.000000
0.580,0.000000,0.024331,0.116310,-0.993127,3.145701,1.926202,11.229218,0.000000,0.000000,0.000000
0.590,0.000000,0.033340,0.120678,-0.992393,2.970566,1.960706,11.229218,0.000000,0.000000,0.000000
0.600,0.000000,0.041398,0.124438,-0.990804,2.790969,2.010072,11.223875,0.000000,0.000000,0.000000
0.610,0.000000,0.040897,0.122728,-0.981529,2.571218,2.193206,11.170435,0.000000,0.000000,0.000000
0.620,0.000000,0.039499,0.120921,-0.972729,2.376971,2.354576,11.122340,0.000000,0.000000,0.000000
0.630,0.000000,0.030017,0.118246,-0.968214,2.412264,2.320073,11.122340,0.000000,0.000000,0.000000
0.640,0.000000,0.021283,0.116446,-0.964577,2.461475,2.302954,11.125903,0.000000,0.000000,0.000000
0.650,0.000000,0.019281,0.122533,-0.968848,2.635944,2.442295,11.161529,0.000000,0.000000,0.000000
0.660,0.000000,0.017955,0.129303,-0.973752,2.829725,2.582432,11.195374,0.000000,0.000000,0.000000
0.670,0.000000,0.022710,0.142225,-0.984360,3.197309,2.729736,11.213186,0.000000,0.000000,0.000000
0.680,0.000000,0.026939,0.154224,-0.994579,3.543118,2.850100,11.225656,0.000000,0.000000,0.000000
0.690,0.000000,0.026438,0.157931,-1.001298,3.692948,2.728011,11.190030,0.000000,0.000000,0.000000
0.700,0.000000,0.025813,0.159933,-1.007271,3.792835,2.616405,11.151003,0.000000,0.000000,0.000000
0.710,0.000000,0.024061,0.146595,-1.006537,3.443231,2.599153,11.081370,0.000000,0.000000,0.000000
0.720,0.000000,0.023207,0.133252,-1.006657,3.112072,2.564384,11.027445,0.000000,0.000000,0.000000
0.730,0.000000,0.030437,0.119870,-1.014463,2.946926,2.371961,11.114891,0.000000,0.000000,0.000000
0.740,0.000000,0.036296,0.107923,-1.019781,2.794765,2.218287,11.193592,0.000000,0.000000,0.000000
0.750,0.000000,0.029817,0.108891,-1.002699,2.759471,2.413365,11.193592,0.000000,0.000000,0.000000
0.760,0.000000,0.023836,0.110382,-0.987007,2.704733,2.609902,11.204118,0.000000,0.000000,0.000000
0.770,0.000000,0.022334,0.116578,-0.983824,2.474993,2.819578,11.309377,0.000000,0.000000,0.000000
0.780,0.000000,0.021333,0.122705,-0.980473,2.275219,3.022219,11.412692,0.000000,0.000000,0.000000
0.790,0.000000,0.024837,0.128207,-0.975604,2.345140,3.161560,11.498518,0.000000,0.000000,0.000000
0.800,0.000000,0.027389,0.134051,-0.972615,2.488578,3.242909,11.588231,0.000000,0.000000,0.000000
0.810,0.000000,0.021383,0.142973,-0.986542,3.293667,2.802326,11.712922,0.000000,0.000000,0.000000
0.820,0.000000,0.016028,0.151271,-0.998170,3.993742,2.412834,11.812675,0.000000,0.000000,0.000000
0.830,0.000000,0.016528,0.153945,-0.989112,3.748685,2.483168,11.687984,0.000000,0.000000,0.000000
0.840,0.000000,0.017029,0.155166,-0.981572,3.484584,2.489007,11.563617,0.000000,0.000000,0.000000
0.850,0.000000,0.017529,0.143302,-0.987692,3.049077,1.914391,11.442164,0.000000,0.000000,0.000000
0.860,0.000000,0.018180,0.131524,-0.990709,2.669173,1.398829,11.338039,0.000000,0.000000,0.000000
0.870,0.000000,0.020182,0.120506,-0.965793,2.789704,1.414754,11.389859,0.000000,0.000000,0.000000
0.880,0.000000,0.022782,0.110706,-0.945909,2.935139,1.443020,11.447022,0.000000,0.000000,0.000000
0.890,0.000000,0.030762,0.111868,-0.971315,3.304721,1.582361,11.552281,0.000000,0.000000,0.000000
0.900,0.000000,0.037994,0.113265,-0.994716,3.610908,1.744793,11.647014,0.000000,0.000000,0.000000
0.910,0.000000,0.038495,0.116785,-1.000074,3.346540,2.115042,11.647014,0.000000,0.000000,0.000000
0.920,0.000000,0.039196,0.120027,-1.004848,3.068588,2.502278,11.640051,0.000000,0.000000,0.000000
0.930,0.000000,0.041698,0.120751,-1.004358,2.668374,3.042391,11.570417,0.000000,0.000000,0.000000
0.940,0.000000,0.043400,0.121614,-1.004015,2.332687,3.533933,11.509692,0.000000,0.000000,0.000000
0.950,0.000000,0.037894,0.123726,-1.004995,2.577743,3.588342,11.529124,0.000000,0.000000,0.000000
0.960,0.000000,0.030840,0.125744,-1.003727,2.857760,3.574275,11.546614,0.000000,0.000000,0.000000
0.970,0.000000,0.009846,0.126913,-0.982239,3.452420,2.943923,11.546614,0.000000,0.000000,0.000000
0.980,0.000000,-0.008497,0.127918,-0.962314,3.956184,2.352188,11.533982,0.000000,0.000000,0.000000
0.990,0.000000,-0.002992,0.127443,-0.956466,3.641873,2.108009,11.407672,0.000000,0.000000,0.000000
1.000,0.000000,0.003365,0.127288,-0.955742,3.372910,1.867281,11.299499,0.000000,0.000000,0.000000
1.010,0.000000,0.017379,0.130003,-1.001140,3.512086,1.657606,11.354557,0.000000,0.000000,0.000000
1.020,0.000000,0.030139,0.132644,-1.039656,3.617966,1.480841,11.393583,0.000000,0.000000,0.000000
1.030,0.000000,0.031613,0.134618,-1.016237,3.424186,1.600277,11.288324,0.000000,0.000000,0.000000
1.040,0.000000,0.032141,0.135852,-0.993157,3.230738,1.721835,11.198612,0.000000,0.000000,0.000000
1.050,0.000000,0.024161,0.130434,-0.973137,3.040287,1.862503,11.248813,0.000000,0.000000,0.000000
1.060,0.000000,0.018327,0.124911,-0.957462,2.884397,2.008480,11.299499,0.000000,0.000000,0.000000
1.070,0.000000,0.031813,0.118453,-0.980881,3.039554,2.202230,11.354557,0.000000,0.000000,0.000000
1.080,0.000000,0.043050,0.112787,-1.000422,3.174135,2.374748,11.411234,0.000000,0.000000,0.000000
1.090,0.000000,0.034040,0.114252,-0.985054,3.123526,2.356169,11.482487,0.000000,0.000000,0.000000
1.100,0.000000,0.025815,0.116104,-0.971141,3.056069,2.325248,11.540461,0.000000,0.000000,0.000000
1.110,0.000000,0.024648,0.121440,-0.970325,2.836983,2.183253,11.478924,0.000000,0.000000,0.000000
1.120,0.000000,0.023847,0.126343,-0.970110,2.650128,2.050547,11.416417,0.000000,0.000000,0.000000
1.130,0.000000,0.026349,0.127350,-0.975305,2.753345,2.001446,11.345164,0.000000,0.000000,0.000000
1.140,0.000000,0.028026,0.128111,-0.981586,2.871811,1.969862,11.266463,0.000000,0.000000,0.000000
1.150,0.000000,0.022270,0.126654,-0.997634,3.127521,2.095933,11.120721,0.000000,0.000000,0.000000
1.160,0.000000,0.017424,0.125545,-1.011955,3.346607,2.217757,10.986152,0.000000,0.000000,0.000000
1.170,0.000000,0.020760,0.127557,-1.010731,3.236065,2.301361,10.952146,0.000000,0.000000,0.000000
1.180,0.000000,0.024025,0.129680,-1.009823,3.141439,2.364264,10.925588,0.000000,0.000000,0.000000
1.190,0.000000,0.026638,0.132805,-1.011754,3.190051,2.240847,10.966072,0.000000,0.000000,0.000000
1.200,0.000000,0.028902,0.135268,-1.013767,3.234534,2.134948,11.008175,0.000000,0.000000,0.000000
1.210,0.000000,0.028012,0.131779,-1.016514,3.241859,2.186703,11.064853,0.000000,0.000000,0.000000
1.220,0.000000,0.026944,0.127661,-1.017493,3.252180,2.226382,11.125417,0.000000,0.000000,0.000000
1.230,0.000000,0.024275,0.117877,-1.002560,3.289472,2.157376,11.220960,0.000000,0.000000,0.000000
1.240,0.000000,0.021923,0.108541,-0.988264,3.300792,2.084785,11.299336,0.000000,0.000000,0.000000
1.250,0.000000,0.022423,0.103246,-0.979695,3.078377,1.979948,11.223227,0.000000,0.000000,0.000000
1.260,0.000000,0.023135,0.098959,-0.971527,2.871811,1.879224,11.150031,0.000000,0.000000,0.000000
1.270,0.000000,0.025749,0.103745,-0.966957,2.807883,1.815525,11.103069,0.000000,0.000000,0.000000
1.280,0.000000,0.027395,0.108808,-0.963054,2.747684,1.774387,11.057890,0.000000,0.000000,0.000000
1.290,0.000000,0.020332,0.116361,-0.965148,2.721048,1.936288,11.028741,0.000000,0.000000,0.000000
1.300,0.000000,0.012774,0.123550,-0.968475,2.713390,2.095800,11.001535,0.000000,0.000000,0.000000
1.310,0.000000,0.000762,0.127463,-0.982891,2.876539,2.233814,10.991819,0.000000,0.000000,0.000000
1.320,0.000000,-0.010271,0.131180,-0.996709,3.032163,2.353515,10.983075,0.000000,0.000000,0.000000
1.330,0.000000,-0.012496,0.133138,-1.005141,3.120063,2.308395,10.983075,0.000000,0.000000,0.000000
1.340,0.000000,-0.013850,0.134893,-1.013049,3.208896,2.266062,10.972549,0.000000,0.000000,0.000000
1.350,0.000000,-0.007371,0.134837,-1.016231,3.306119,2.248810,10.867290,0.000000,0.000000,0.000000
1.360,0.000000,-0.002041,0.134246,-1.018826,3.404874,2.233283,10.763651,0.000000,0.000000,0.000000
1.370,0.000000,-0.007046,0.128839,-1.016133,3.517414,2.233283,10.674586,0.000000,0.000000,0.000000
1.380,0.000000,-0.012298,0.123197,-1.013122,3.616901,2.243767,10.590055,0.000000,0.000000,0.000000
1.390,0.000000,-0.019778,0.115439,-1.007247,3.598922,2.348605,10.546332,0.000000,0.000000,0.000000
1.400,0.000000,-0.027060,0.108199,-1.001766,3.578545,2.441233,10.503419,0.000000,0.000000,0.000000
1.410,0.000000,-0.032566,0.105617,-0.999835,3.536592,2.423981,10.467793,0.000000,0.000000,0.000000
1.420,0.000000,-0.037946,0.103637,-0.997204,3.511087,2.397971,10.439293,0.000000,0.000000,0.000000
1.430,0.000000,-0.042201,0.107084,-0.988283,3.633615,2.293133,10.474918,0.000000,0.000000,0.000000
1.440,0.000000,-0.046180,0.110522,-0.980302,3.744623,2.190950,10.507792,0.000000,0.000000,0.000000
1.450,0.000000,-0.047681,0.113885,-0.980792,3.751948,2.112654,10.515888,0.000000,0.000000,0.000000
1.460,0.000000,-0.049430,0.116709,-0.982415,3.749018,2.009939,10.516050,0.000000,0.000000,0.000000
1.470,0.000000,-0.053407,0.114689,-0.994248,3.653793,1.687464,10.444798,0.000000,0.000000,0.000000
1.480,0.000000,-0.057836,0.112106,-1.004848,3.520610,1.405730,10.365450,0.000000,0.000000,0.000000
1.490,0.000000,-0.066345,0.104464,-1.004358,3.045814,1.490662,10.213229,0.000000,0.000000,0.000000
1.500,0.000000,-0.074003,0.097061,-1.003382,2.602982,1.581167,10.069267,0.000000,0.000000,0.000000
1.510,0.000000,-0.074003,0.091804,-0.998023,2.447824,1.721835,9.999636,0.000000,0.000000,0.000000
1.520,0.000000,-0.075004,0.087635,-0.994275,2.339679,1.867812,9.927897,0.000000,0.000000,0.000000
1.530,0.000000,-0.085014,0.093249,-1.005019,2.654656,2.061562,9.837214,0.000000,0.000000,0.000000
1.540,0.000000,-0.094073,0.099051,-1.014836,2.924085,2.253587,9.748634,0.000000,0.000000,0.000000
1.550,0.000000,-0.094573,0.106549,-1.016305,2.783577,2.430086,9.679001,0.000000,0.000000,0.000000
1.560,0.000000,-0.096720,0.112757,-1.015842,2.660650,2.579778,9.609207,0.000000,0.000000,0.000000
1.570,0.000000,-0.115378,0.106811,-0.996214,2.699472,2.479054,9.530829,0.000000,0.000000,0.000000
1.580,0.000000,-0.129153,0.100612,-0.982135,2.678696,2.431015,9.431725,0.000000,0.000000,0.000000
1.590,0.000000,-0.130182,0.091235,-0.983114,2.433640,2.557086,9.221208,0.000000,0.000000,0.000000
1.600,0.000000,-0.131105,0.084146,-0.989224,2.356793,2.597959,9.059918,0.000000,0.000000,0.000000
1.610,0.000000,-0.131605,0.086210,-1.015853,2.952786,2.298044,9.095545,0.000000,0.000000,0.000000
1.620,0.000000,-0.133507,0.088904,-1.032663,3.352334,2.079079,9.099755,0.000000,0.000000,0.000000
1.630,0.000000,-0.141015,0.094124,-1.010195,2.966104,2.183917,8.978303,0.000000,0.000000,0.000000
1.640,0.000000,-0.146521,0.098189,-0.992417,2.681226,2.257967,8.884379,0.000000,0.000000,0.000000
1.650,0.000000,-0.144018,0.097641,-0.993396,2.801757,2.208865,8.900574,0.000000,0.000000,0.000000
1.660,0.000000,-0.142311,0.097437,-0.996133,2.984217,2.175954,8.904784,0.000000,0.000000,0.000000
1.670,0.000000,-0.143784,0.098609,-1.005898,3.414397,2.207804,8.861061,0.000000,0.000000,0.000000
1.680,0.000000,-0.144669,0.099668,-1.014248,3.716455,2.247350,8.806973,0.000000,0.000000,0.000000
1.690,0.000000,-0.143195,0.100274,-1.016941,3.506027,2.317684,8.711432,0.000000,0.000000,0.000000
1.700,0.000000,-0.143517,0.098988,-1.015897,3.272824,2.377402,8.598723,0.000000,0.000000,0.000000
1.710,0.000000,-0.151025,0.090135,-0.999903,2.948524,2.394654,8.417355,0.000000,0.000000,0.000000
1.720,0.000000,-0.157276,0.081363,-0.987396,2.717052,2.403412,8.239224,0.000000,0.000000,0.000000
1.730,0.000000,-0.158499,0.072917,-0.988837,2.856894,2.378198,8.074050,0.000000,0.000000,0.000000
1.740,0.000000,-0.159122,0.066855,-0.992852,2.984750,2.375544,7.908551,0.000000,0.000000,0.000000
1.750,0.000000,-0.157343,0.070329,-1.007160,3.064659,2.463130,7.741756,0.000000,0.000000,0.000000
1.760,0.000000,-0.155724,0.074624,-1.019384,3.118065,2.564782,7.588889,0.000000,0.000000,0.000000
1.770,0.000000,-0.154751,0.082205,-1.023273,3.065458,2.722702,7.491727,0.000000,0.000000,0.000000
1.780,0.000000,-0.153973,0.088595,-1.024873,3.024838,2.854346,7.401690,0.000000,0.000000,0.000000
1.790,0.000000,-0.153973,0.090222,-1.017311,3.032163,2.880888,7.340154,0.000000,0.000000,0.000000
1.800,0.000000,-0.154367,0.090795,-1.009309,3.017113,2.914330,7.283800,0.000000,9.609546,0.000000
1.810,0.000000,-0.156342,0.087158,-0.999544,2.912565,2.975374,7.248174,0.000000,57.657276,0.000000
1.820,0.000000,-0.157026,0.083067,-0.991976,2.820402,3.039604,7.216435,0.000000,105.705002,0.000000
1.830,0.000000,-0.152549,0.077155,-0.993200,2.777784,3.116573,7.200241,0.000000,153.752731,0.000000
1.840,0.000000,-0.148567,0.071427,-0.993859,2.773655,3.148688,7.145183,0.000000,201.800461,0.000000
1.850,0.000000,-0.146565,0.066432,-0.992254,2.923486,3.001384,6.934666,0.000000,249.848190,0.000000
1.860,0.000000,-0.144869,0.062989,-0.990780,3.037756,2.839749,6.715404,0.000000,297.895935,0.000000
1.870,0.000000,-0.144396,0.065758,-0.989828,3.009788,2.620784,6.461164,0.000000,345.943665,0.000000
1.880,0.000000,-0.143067,0.070185,-0.990067,3.008456,2.436854,6.236396,0.000000,393.991394,0.000000
1.890,0.000000,-0.138312,0.081248,-0.995072,3.113670,2.393061,6.129518,0.000000,442.039124,0.000000
1.900,0.000000,-0.133157,0.091282,-1.001856,3.206898,2.393061,6.028794,0.000000,483.725067,0.000000
1.910,0.000000,-0.126400,0.097193,-1.015755,3.252180,2.568233,5.952684,0.000000,499.963959,0.000000
1.920,0.000000,-0.121089,0.100276,-1.027609,3.235932,2.736238,5.870744,0.000000,516.202881,0.000000
1.930,0.000000,-0.121562,0.092043,-1.031281,2.973562,2.875579,5.765485,0.000000,532.441772,0.000000
1.940,0.000000,-0.122641,0.083413,-1.030384,2.786174,2.992095,5.670914,0.000000,548.680664,0.000000
1.950,0.000000,-0.126144,0.073195,-1.011207,2.898714,3.017309,5.619095,0.000000,564.919556,0.000000
1.960,0.000000,-0.129548,0.065382,-0.995572,3.030698,3.049955,5.561769,0.000000,581.158447,0.000000
1.970,0.000000,-0.132551,0.067190,-0.994103,3.240460,3.112327,5.482420,0.000000,597.397339,0.000000
1.980,0.000000,-0.134008,0.070430,-0.994566,3.410401,3.176291,5.391088,0.000000,613.636230,0.000000
1.990,0.000000,-0.129281,0.079404,-1.002753,3.421056,3.246625,5.251823,0.000000,629.875122,0.000000
2.000,0.000000,-0.123347,0.087452,-1.007470,3.457548,3.290418,5.126484,0.000000,639.337463,0.000000
2.010,0.000000,-0.112586,0.091803,-0.998303,3.597390,3.228046,5.056851,0.000000,621.693787,0.000000
2.020,0.000000,-0.103482,0.094439,-0.988897,3.632151,3.227250,4.976531,0.000000,604.050049,0.000000
2.030,0.000000,-0.101008,0.090216,-0.978534,3.246587,3.472756,4.853459,0.000000,586.406372,0.000000
2.040,0.000000,-0.095825,0.085024,-0.970439,2.987280,3.645008,4.744314,0.000000,568.762695,0.000000
2.050,0.000000,-0.079808,0.075952,-0.971418,3.233002,3.524245,4.690876,0.000000,551.118958,0.000000
2.060,0.000000,-0.068197,0.067580,-0.974106,3.404541,3.430555,4.637760,0.000000,533.475281,0.000000
2.070,0.000000,-0.074203,0.062006,-0.983626,3.279350,3.445153,4.585941,0.000000,515.831604,0.000000
2.080,0.000000,-0.076805,0.058055,-0.995050,3.158020,3.411976,4.509830,0.000000,498.187897,0.000000
2.090,0.000000,-0.065794,0.060590,-1.014091,3.052140,3.187703,4.336559,0.000000,480.544189,0.000000
2.100,0.000000,-0.056690,0.063886,-1.026391,2.995671,2.941401,4.197941,0.000000,465.867310,0.030701
2.110,0.000000,-0.055217,0.070221,-1.011729,3.136844,2.606983,4.197941,0.000000,463.057709,0.184207
2.120,0.000000,-0.054433,0.076129,-0.994827,3.246587,2.350330,4.186606,0.000000,460.248077,0.337713
2.130,0.000000,-0.056407,0.080323,-0.968959,3.230605,2.404739,4.129928,0.000000,457.438477,0.491218
2.140,0.000000,-0.057091,0.083460,-0.954614,3.203835,2.469234,4.070983,0.000000,454.628845,0.644724
2.150,0.000000,-0.052614,0.082363,-0.986357,3.133914,2.574072,4.002970,0.000000,451.819244,0.798230
2.160,0.000000,-0.047231,0.080570,-1.009700,3.059998,2.706778,3.948559,0.000000,449.009644,0.951736
2.170,0.000000,-0.038222,0.075996,-0.999446,2.970099,2.950956,3.948559,0.000000,446.200012,1.105241
2.180,0.000000,-0.030714,0.072484,-0.991732,2.909235,3.149484,3.924592,0.000000,443.390411,1.258747
2.190,0.000000,-0.029213,0.073223,-0.994180,2.964506,3.165409,3.804760,0.000000,440.580780,1.412253
2.200,0.000000,-0.028512,0.075656,-0.994914,3.015648,3.154262,3.694643,0.000000,438.503693,1.513237
2.210,0.000000,-0.031014,0.084864,-0.988794,3.050276,3.034826,3.623391,0.000000,439.356598,1.404135
2.220,0.000000,-0.032516,0.093623,-0.987467,3.095158,2.907163,3.541451,0.000000,440.209503,1.295033
2.230,0.000000,-0.030013,0.100580,-1.005310,3.181061,2.746589,3.416760,0.000000,441.062439,1.185931
2.240,0.000000,-0.026215,0.105467,-1.018312,3.263634,2.653165,3.321218,0.000000,441.915344,1.076829
2.250,0.000000,-0.017234,0.102073,-1.011947,3.332889,2.828336,3.342269,0.000000,442.768280,0.967727
2.260,0.000000,-0.012546,0.097943,-1.001388,3.371246,2.972455,3.359111,0.000000,443.621185,0.858625
2.270,0.000000,-0.025031,0.090872,-0.974051,3.286009,2.992361,3.359111,0.000000,444.474091,0.749523
2.280,0.000000,-0.032421,0.084872,-0.957649,3.213957,2.969270,3.362026,0.000000,445.327026,0.640421
2.290,0.000000,-0.019436,0.083157,-0.984986,3.194645,2.774192,3.376600,0.000000,446.179932,0.531319
2.300,0.000000,-0.008547,0.082482,-1.012518,3.197176,2.664046,3.374009,0.000000,446.233459,0.435157
2.310,0.000000,-0.006045,0.085965,-1.040834,3.287074,2.893627,3.302757,0.000000,443.089355,0.390753
2.320,0.000000,-0.003542,0.089432,-1.058215,3.372977,3.080477,3.228914,0.000000,439.945282,0.346349
2.330,0.000000,-0.001040,0.092840,-1.031858,3.442898,3.096402,3.144707,0.000000,436.801178,0.301946
2.340,0.000000,0.000762,0.095179,-1.012627,3.512686,3.109142,3.052403,0.000000,433.657074,0.257542
2.350,0.000000,-0.000239,0.093243,-1.021903,3.581941,3.109142,2.927712,0.000000,430.513000,0.213138
2.360,0.000000,-0.002636,0.090281,-1.022583,3.581408,3.081008,2.820834,0.000000,427.368896,0.168734
2.370,0.000000,-0.010616,0.083218,-0.988881,3.301724,2.940340,2.785208,0.000000,424.224823,0.124331
2.380,0.000000,-0.015905,0.077249,-0.965342,3.052939,2.834706,2.746667,0.000000,421.080719,0.079927
2.390,0.000000,-0.010427,0.075653,-0.982451,2.927747,2.869210,2.696467,0.000000,417.936615,0.035523
2.400,0.000000,-0.007190,0.076055,-0.998091,2.936671,2.902386,2.671853,0.000000,415.060120,0.000000
2.410,0.000000,-0.012918,0.084453,-1.007856,3.482054,2.930254,2.749582,0.000000,413.253937,0.000000
2.420,0.000000,-0.017150,0.091993,-1.016011,3.904376,2.959715,2.815329,0.000000,411.447754,0.000000
2.430,0.000000,-0.015399,0.096100,-1.017725,3.834455,2.995545,2.833142,0.000000,409.641571,0.000000
2.440,0.000000,-0.013747,0.098017,-1.018410,3.722581,3.036154,2.836704,0.000000,407.835388,0.000000
2.450,0.000000,-0.012496,0.091172,-1.014983,3.442898,3.095871,2.783265,0.000000,406.029236,0.000000
2.460,0.000000,-0.012095,0.085119,-1.011115,3.238063,3.135152,2.733712,0.000000,404.223053,0.000000
2.470,0.000000,-0.015098,0.082232,-1.005484,3.332623,3.092686,2.699706,0.000000,402.416870,0.000000
2.480,0.000000,-0.017000,0.081361,-1.000566,3.432776,3.064022,2.668938,0.000000,400.610687,0.000000
2.490,0.000000,-0.014498,0.088555,-0.998499,3.555304,3.090563,2.651125,0.000000,398.804504,0.000000
2.500,0.000000,-0.013797,0.094837,-0.995969,3.642938,3.103037,2.624891,0.000000,428.542908,0.000000
2.510,0.000000,-0.020304,0.097466,-0.991590,3.590997,3.059244,2.564975,0.000000,584.459717,0.000000
2.520,0.000000,-0.025909,0.097357,-0.986645,3.550909,2.992626,2.503115,0.000000,740.376526,0.000000
2.530,0.000000,-0.027911,0.086295,-0.979437,3.558234,2.834706,2.433482,0.000000,896.293335,0.000000
2.540,0.000000,-0.028812,0.075039,-0.972060,3.559033,2.710228,2.372271,0.000000,1052.210083,0.000000
2.550,0.000000,-0.025309,0.063012,-0.964009,3.533728,2.719517,2.344741,0.000000,1208.126953,0.000000
2.560,0.000000,-0.020209,0.054205,-0.984665,3.522408,2.705981,2.326281,0.000000,1364.043701,0.000000
2.570,0.000000,-0.008725,0.058284,-1.120151,3.567024,2.601144,2.344094,0.000000,1519.960571,0.000000
2.580,0.000000,0.002164,0.064108,-1.228905,3.586869,2.468173,2.360287,0.000000,1675.877319,0.000000
2.590,0.000000,0.010672,0.076909,-1.230727,3.507625,2.222667,2.370003,0.000000,1831.794189,0.000000
2.600,0.000000,0.015077,0.087233,-1.204430,3.409203,1.999987,2.363850,0.000000,1981.422729,0.000000
2.610,0.000000,0.003065,0.087649,-1.065652,3.234067,1.868608,2.294217,0.000000,2105.898682,0.000000
2.620,0.000000,-0.005945,0.085886,-0.961329,3.112738,1.839147,2.212277,0.000000,2242.822266,0.000000
2.630,0.000000,-0.003943,0.078900,-0.983661,3.175334,2.091288,2.124832,0.000000,2367.298096,0.000000
2.640,0.000000,-0.009815,0.075383,-0.994789,3.324232,2.467244,2.065563,0.000000,2491.773926,0.000000
2.650,0.000000,-0.034062,0.079960,-0.979774,3.674503,3.132100,2.072041,0.000000,2616.249756,0.000000
2.660,0.000000,-0.056207,0.084960,-0.981129,3.953254,3.600286,2.081919,0.000000,2740.725830,0.000000
2.670,0.000000,-0.073446,0.090945,-1.020679,4.065127,3.609575,2.099732,0.000000,2865.201660,0.000000
2.680,0.000000,-0.074636,0.090873,-1.034189,4.096092,3.595376,2.096655,0.000000,2989.677490,0.000000
2.690,0.000000,-0.038377,0.076668,-0.986942,3.938271,3.526369,2.044835,0.000000,3114.153564,0.000000
2.700,0.000000,-0.013747,0.059844,-0.932374,3.801625,3.430688,1.989615,0.000000,3194.819580,0.000000
2.710,0.000000,-0.016249,0.036909,-0.860728,3.714391,3.272768,1.926460,0.000000,3173.262451,0.000000
2.720,0.000000,-0.023332,0.018329,-0.830535,3.663914,3.065481,1.866705,0.000000,3151.705322,0.000000
2.730,0.000000,-0.041100,0.009912,-0.897068,3.699208,2.743006,1.814885,0.000000,3130.148193,0.000000
2.740,0.000000,-0.051510,0.005167,-0.942727,3.747886,2.553900,1.767924,0.000000,3108.591064,0.000000
2.750,0.000000,-0.044753,0.008988,-0.939681,3.827796,2.675990,1.732298,0.000000,3087.033936,0.000000
2.760,0.000000,-0.033425,0.016121,-0.941865,3.872345,2.777377,1.702988,0.000000,3065.476807,0.000000
2.770,0.000000,-0.011431,0.030979,-0.956254,3.834388,2.830460,1.688413,0.000000,3043.919678,0.000000
2.780,0.000000,0.000821,0.049745,-0.960614,3.797230,2.815066,1.657321,0.000000,3022.362549,0.000000
2.790,0.000000,-0.009662,0.077627,-0.941574,3.761937,2.639894,1.587689,0.000000,3000.805664,0.000000
2.800,0.000000,-0.009951,0.099329,-0.951755,3.684891,2.616405,1.549148,0.000000,2972.053955,0.000000
2.810,0.000000,0.013545,0.106612,-1.030120,3.510422,2.946842,1.583155,0.000000,2926.514648,0.000000
2.820,0.000000,0.023986,0.103302,-1.078382,3.461810,3.226321,1.596757,0.000000,2880.975586,0.000000
2.830,0.000000,0.003965,0.075275,-1.056404,3.706866,3.386895,1.562751,0.000000,2835.436523,0.000000
2.840,0.000000,-0.021594,0.051481,-1.018244,3.874010,3.435996,1.543318,0.000000,2789.897217,0.000000
2.850,0.000000,-0.060077,0.037565,-0.942327,3.859360,3.224994,1.557892,0.000000,2744.358154,0.000000
2.860,0.000000,-0.079216,0.033930,-0.902805,3.775588,3.050220,1.557407,0.000000,2698.819092,0.000000
2.870,0.000000,-0.053218,0.054281,-0.948202,3.530532,2.959980,1.521781,0.000000,2653.279785,0.000000
2.880,0.000000,-0.028720,0.073066,-0.988117,3.337817,2.882082,1.475953,0.000000,2607.740723,0.000000
2.890,0.000000,-0.007727,0.088197,-1.015236,3.267230,2.832981,1.406320,0.000000,2562.201660,0.000000
2.900,0.000000,0.004416,0.097332,-1.022207,3.253978,2.771538,1.353205,0.000000,2517.630859,0.000000
2.910,0.000000,-0.004093,0.092476,-0.982168,3.374509,2.681298,1.338631,0.000000,2475.319336,0.000000
2.920,0.000000,-0.011242,0.086802,-0.953700,3.496238,2.628481,1.328429,0.000000,2433.008057,0.000000
2.930,0.000000,-0.015218,0.079218,-0.952231,3.620764,2.662985,1.328429,0.000000,2390.696533,0.000000
2.940,0.000000,-0.009009,0.074058,-0.974492,3.686955,2.756011,1.307539,0.000000,2348.385010,0.000000
2.950,0.000000,0.020966,0.074554,-1.052122,3.617034,2.985592,1.237906,0.000000,2306.073730,0.000000
2.960,0.000000,0.037002,0.078397,-1.095333,3.536725,3.171779,1.178476,0.000000,2263.762207,0.000000
2.970,0.000000,0.020513,0.090050,-1.058232,3.432177,3.256710,1.142850,0.000000,2221.450928,0.000000
2.980,0.000000,0.009571,0.101010,-1.046321,3.352800,3.295460,1.117911,0.000000,2179.139404,0.000000
2.990,0.000000,0.011573,0.110357,-1.093187,3.332157,3.226454,1.117911,0.000000,2136.827881,0.000000
3.000,0.000000,0.014326,0.113504,-1.118821,3.376240,3.131569,1.112082,0.000000,2101.525391,0.000000
3.010,0.000000,0.018831,0.102184,-1.094912,3.571353,2.976303,1.092649,0.000000,2082.577393,0.000000
3.020,0.000000,0.014184,0.087778,-1.053858,3.659986,2.867617,1.057671,0.000000,2063.629150,0.000000
3.030,0.000000,-0.011814,0.066172,-0.972800,3.500166,2.867617,0.986419,0.000000,2044.680908,0.000000
3.040,0.000000,-0.028212,0.049664,-0.925215,3.314776,2.851294,0.911281,0.000000,2025.732788,0.000000
3.050,0.000000,-0.022206,0.045048,-0.955734,3.069720,2.796885,0.827074,0.000000,2006.784546,0.000000
3.060,0.000000,-0.016358,0.048500,-0.981268,2.946127,2.779500,0.772501,0.000000,1987.836426,0.000000
3.070,0.000000,-0.010880,0.070777,-0.995167,3.105946,2.848507,0.787075,0.000000,1968.888184,0.000000
3.080,0.000000,-0.012143,0.094028,-0.992297,3.238995,2.860982,0.782217,0.000000,1949.940063,0.000000
3.090,0.000000,-0.029132,0.119552,-0.950300,3.309582,2.741547,0.732017,0.000000,1930.991821,0.000000
3.100,0.000000,-0.033075,0.134875,-0.944492,3.363388,2.704522,0.701735,0.000000,1914.803101,0.000000
3.110,0.000000,-0.006576,0.126394,-1.023129,3.378038,2.859787,0.717929,0.000000,1905.053101,0.000000
3.120,0.000000,0.004174,0.109710,-1.065429,3.425651,2.894822,0.729264,0.000000,1895.303101,0.000000
3.130,0.000000,-0.021825,0.073884,-1.022942,3.550177,2.649316,0.729264,0.000000,1885.553101,0.000000
3.140,0.000000,-0.039873,0.044716,-0.987815,3.626357,2.446011,0.713232,0.000000,1875.803101,0.000000
3.150,0.000000,-0.039373,0.031083,-0.969862,3.589732,2.341173,0.659793,0.000000,1866.052979,0.000000
3.160,0.000000,-0.034752,0.027700,-0.963889,3.548312,2.294062,0.599067,0.000000,1856.302979,0.000000
3.170,0.000000,-0.020515,0.048234,-0.985867,3.495705,2.381648,0.521338,0.000000,1846.552979,0.000000
3.180,0.000000,-0.012643,0.068090,-0.994552,3.474462,2.503870,0.456725,0.000000,1836.802979,0.000000
3.190,0.000000,-0.019622,0.086362,-0.972221,3.526403,2.706910,0.422719,0.000000,1827.052979,0.000000
3.200,0.000000,-0.021438,0.099190,-0.967898,3.578544,2.922292,0.398914,0.000000,1818.908447,0.000000
3.210,0.000000,-0.011205,0.099316,-1.005598,3.631152,3.166471,0.398914,0.000000,1814.510010,0.000000
3.220,0.000000,-0.001190,0.097794,-1.032870,3.631418,3.411047,0.382882,0.000000,1810.111694,0.000000
3.230,0.000000,0.008320,0.092430,-1.035807,3.509556,3.656553,0.329443,0.000000,1805.713257,0.000000
3.240,0.000000,0.019248,0.086484,-1.034714,3.419058,3.836370,0.292036,0.000000,1801.314941,0.000000
3.250,0.000000,0.033484,0.079185,-1.024215,3.401744,3.862911,0.292036,0.000000,1796.916504,0.000000
3.260,0.000000,0.044801,0.071608,-1.012981,3.400013,3.823762,0.294951,0.000000,1792.518188,0.000000
3.270,0.000000,0.049306,0.063387,-1.000033,3.434641,3.631339,0.304667,0.000000,1788.119751,0.000000
3.280,0.000000,0.049456,0.059054,-0.978265,3.435506,3.460016,0.301266,0.000000,1783.721436,0.000000
3.290,0.000000,0.039446,0.063796,-0.935913,3.357594,3.337926,0.267260,0.000000,1779.322998,0.000000
3.300,0.000000,0.033039,0.072892,-0.910005,3.290271,3.260028,0.238111,0.000000,1780.077271,0.000000
3.310,0.000000,0.035041,0.092147,-0.922463,3.247652,3.285242,0.220298,0.000000,1792.854248,0.000000
3.320,0.000000,0.038845,0.108412,-0.937075,3.209629,3.304883,0.204914,0.000000,1805.631348,0.000000
3.330,0.000000,0.046853,0.117700,-0.956714,3.182326,3.311518,0.195198,0.000000,1818.408447,0.000000
3.340,0.000000,0.054786,0.120680,-0.978409,3.178997,3.300636,0.198599,0.000000,1831.185425,0.000000
3.350,0.000000,0.062544,0.108943,-1.004902,3.231604,3.248881,0.232605,0.000000,1843.962524,0.000000
3.360,0.000000,0.068350,0.097756,-1.018576,3.308184,3.163286,0.267098,0.000000,1856.739502,0.000000
3.370,0.000000,0.069602,0.087850,-1.002337,3.440700,2.998730,0.302724,0.000000,1869.516602,0.000000
3.380,0.000000,0.076692,0.082235,-0.994120,3.549044,2.907429,0.338350,0.000000,1882.293701,0.000000
3.390,0.000000,0.097408,0.086631,-1.004619,3.600986,2.987052,0.373976,0.000000,1895.070679,0.000000
3.400,0.000000,0.112284,0.089470,-1.006371,3.621762,3.134356,0.401829,0.000000,1904.150146,0.000000
3.410,0.000000,0.113535,0.088678,-0.987711,3.569821,3.439579,0.411545,0.000000,1904.601685,0.000000
3.420,0.000000,0.110290,0.083873,-0.968864,3.512486,3.681502,0.399400,0.000000,1905.053223,0.000000
3.430,0.000000,0.096554,0.069707,-0.949579,3.442565,3.775723,0.336245,0.000000,1905.504761,0.000000
3.440,0.000000,0.086263,0.058024,-0.948817,3.390624,3.834512,0.283777,0.000000,1905.956299,0.000000
3.450,0.000000,0.084011,0.052134,-0.991277,3.380635,3.810625,0.256248,0.000000,1906.407837,0.000000
3.460,0.000000,0.080332,0.052038,-1.012945,3.386428,3.760064,0.242321,0.000000,1906.859375,0.000000
3.470,0.000000,0.073325,0.065464,-0.986098,3.429047,3.647264,0.260134,0.000000,1907.310913,0.000000
3.480,0.000000,0.068645,0.079364,-0.966065,3.472265,3.489477,0.288635,0.000000,1907.762451,0.000000
3.490,0.000000,0.069396,0.094371,-0.961931,3.516881,3.226719,0.342074,0.000000,1908.213989,0.000000
3.500,0.000000,0.069471,0.105591,-0.967384,3.551109,2.953610,0.385311,0.000000,1904.355713,0.000000
3.510,0.000000,0.067969,0.107973,-0.995211,3.561098,2.656349,0.404744,0.000000,1890.441528,0.000000
3.520,0.000000,0.069171,0.107801,-1.021715,3.572685,2.469367,0.422719,0.000000,1876.527222,0.000000
3.530,0.000000,0.076678,0.101672,-1.045135,3.588001,2.539701,0.437293,0.000000,1862.612915,0.000000
3.540,0.000000,0.076236,0.095021,-1.031499,3.577745,2.630737,0.453810,0.000000,1848.698608,0.000000
3.550,0.000000,0.057245,0.087153,-0.931401,3.507825,2.770078,0.474862,0.000000,1834.784424,0.000000
3.560,0.000000,0.047254,0.080517,-0.894731,3.437704,2.920169,0.473081,0.000000,1820.870117,0.000000
3.570,0.000000,0.058265,0.076758,-1.006064,3.367117,3.095340,0.418022,0.000000,1806.955811,0.000000
3.580,0.000000,0.058774,0.074697,-1.054187,3.292135,3.274891,0.368794,0.000000,1793.041626,0.000000
3.590,0.000000,0.034777,0.076596,-0.954823,3.206898,3.464660,0.333168,0.000000,1779.127319,0.000000
3.600,0.000000,0.029375,0.078114,-0.920063,3.147233,3.524245,0.314059,0.000000,1772.462891,0.000000
3.610,0.000000,0.067358,0.078745,-1.036047,3.147233,3.280067,0.333492,0.000000,1782.714600,0.000000
3.620,0.000000,0.085545,0.079348,-1.099365,3.183392,3.014390,0.347094,0.000000,1792.966309,0.000000
3.630,0.000000,0.057545,0.079882,-1.039795,3.303922,2.698550,0.347094,0.000000,1803.218140,0.000000
3.640,0.000000,0.045152,0.082186,-1.007326,3.415262,2.483434,0.341265,0.000000,1813.469849,0.000000
3.650,0.000000,0.069176,0.088617,-1.038090,3.505161,2.503340,0.321832,0.000000,1823.721558,0.000000
3.660,0.000000,0.081778,0.094656,-1.015962,3.624293,2.649449,0.322480,0.000000,1834.998535,0.000000
3.670,0.000000,0.071239,0.098501,-0.906806,3.764801,2.979886,0.358106,0.000000,1845.250244,0.000000
3.680,0.000000,0.068131,0.098983,-0.878327,3.792902,3.269981,0.365231,0.000000,1855.501953,0.000000
3.690,0.000000,0.076167,0.094418,-0.970863,3.652394,3.499562,0.329605,0.000000,1865.753784,0.000000
3.700,0.000000,0.080988,0.089997,-1.023067,3.574216,3.601215,0.322480,0.000000,1866.078125,0.000000
3.710,0.000000,0.080988,0.085790,-1.014771,3.589532,3.510975,0.358106,0.000000,1851.511719,0.000000
3.720,0.000000,0.085571,0.083398,-1.011164,3.570753,3.359159,0.401505,0.000000,1836.945190,0.000000
3.730,0.000000,0.097027,0.083729,-1.014591,3.500833,3.114981,0.456563,0.000000,1822.378662,0.000000
3.740,0.000000,0.091710,0.085043,-1.006779,3.458880,2.850100,0.467575,0.000000,1807.812134,0.000000
3.750,0.000000,0.061235,0.087833,-0.982108,3.458880,2.554166,0.412517,0.000000,1793.245605,0.000000
3.760,0.000000,0.047554,0.091120,-0.980296,3.458880,2.410578,0.393084,0.000000,1778.679077,0.000000
3.770,0.000000,0.059066,0.095152,-1.012774,3.458880,2.495510,0.427091,0.000000,1764.112549,0.000000
3.780,0.000000,0.063771,0.098361,-1.015461,3.522808,2.625031,0.455916,0.000000,1749.546021,0.000000
3.790,0.000000,0.058265,0.100337,-0.973464,3.682627,2.821435,0.476967,0.000000,1734.979492,0.000000
3.800,0.000000,0.060356,0.101280,-0.973464,3.764401,3.085254,0.453325,0.000000,1728.841919,0.000000
3.810,0.000000,0.073842,0.100675,-1.036460,3.729108,3.450196,0.362640,0.000000,1735.347412,0.000000
3.820,0.000000,0.075338,0.099788,-1.049647,3.686090,3.641026,0.308230,0.000000,1741.853027,0.000000
3.830,0.000000,0.058849,0.098478,-0.988119,3.631485,3.570693,0.308230,0.000000,1748.358643,0.000000
3.840,0.000000,0.052759,0.095598,-0.972495,3.620564,3.402156,0.336083,0.000000,1754.864258,0.000000
3.850,0.000000,0.062269,0.090364,-1.025727,3.675169,3.086316,0.405715,0.000000,1761.369873,0.000000
3.860,0.000000,0.064972,0.083196,-1.039006,3.713792,2.812942,0.427415,0.000000,1767.875488,0.000000
3.870,0.000000,0.057464,0.073124,-0.992357,3.728441,2.603267,0.377214,0.000000,1774.381104,0.000000
3.880,0.000000,0.057030,0.064973,-0.976967,3.641074,2.646264,0.328310,0.000000,1780.886719,0.000000
3.890,0.000000,0.067207,0.059701,-1.008465,3.400679,3.068268,0.281348,0.000000,1787.392334,0.000000
3.900,0.000000,0.070044,0.059782,-1.021271,3.229806,3.443560,0.234387,0.000000,1794.633789,0.000000
3.910,0.000000,0.061869,0.067889,-1.006039,3.163214,3.748784,0.187425,0.000000,1802.979004,0.000000
3.920,0.000000,0.059800,0.077351,-0.997933,3.198907,3.894760,0.188397,0.000000,1811.324219,0.000000
3.930,0.000000,0.066890,0.088843,-1.000517,3.388027,3.801866,0.261268,0.000000,1819.669434,0.000000
3.940,0.000000,0.075660,0.094193,-1.008226,3.515882,3.658544,0.329605,0.000000,1828.014648,0.000000
3.950,0.000000,0.086950,0.090330,-1.023622,3.551841,3.439579,0.391141,0.000000,1836.359863,0.000000
3.960,0.000000,0.092811,0.081685,-1.026135,3.565959,3.256711,0.404744,0.000000,1844.705078,0.000000
3.970,0.000000,0.090531,0.065868,-1.009325,3.547313,3.127986,0.346447,0.000000,1853.050293,0.000000
3.980,0.000000,0.085359,0.054337,-0.999119,3.500966,2.979621,0.316003,0.000000,1861.395508,0.000000
3.990,0.000000,0.075850,0.049233,-0.998820,3.413065,2.801795,0.327338,0.000000,1869.740723,0.000000
4.000,0.000000,0.066273,0.050788,-0.993255,3.335819,2.635117,0.348390,0.000000,1874.460205,0.000000
4.010,0.000000,0.056597,0.062329,-0.979791,3.274555,2.485159,0.384016,0.000000,1873.740967,0.000000
4.020,0.000000,0.042983,0.073586,-0.960320,3.249783,2.412701,0.407982,0.000000,1873.021851,0.000000
4.030,0.000000,0.023463,0.084417,-0.931841,3.279749,2.456494,0.414460,0.000000,1872.302734,0.000000
4.040,0.000000,0.014476,0.090624,-0.925873,3.352866,2.557086,0.411869,0.000000,1871.583618,0.000000
4.050,0.000000,0.021289,0.089896,-0.953673,3.490710,2.742874,0.395675,0.000000,1870.864502,0.000000
4.060,0.000000,0.037288,0.087992,-0.990350,3.564361,2.946710,0.356163,0.000000,1870.145386,0.000000
4.070,0.000000,0.067068,0.084325,-1.040344,3.541719,3.177618,0.281672,0.000000,1869.426270,0.000000
4.080,0.000000,0.078541,0.082083,-1.047493,3.486049,3.380392,0.245398,0.000000,1868.707153,0.000000
4.090,0.000000,0.062553,0.081976,-0.990372,3.380835,3.540966,0.266450,0.000000,1867.988037,0.000000
4.100,0.000000,0.063148,0.081186,-0.969569,3.340081,3.567242,0.299161,0.000000,1860.030762,0.000000
4.110,0.000000,0.088618,0.079370,-1.003243,3.396018,3.392070,0.349361,0.000000,1841.216431,0.000000
4.120,0.000000,0.089708,0.077831,-0.994550,3.421322,3.138868,0.373004,0.000000,1822.401978,0.000000
4.130,0.000000,0.054228,0.076706,-0.922305,3.400679,2.768619,0.356810,0.000000,1803.587646,0.000000
4.140,0.000000,0.033540,0.078342,-0.884028,3.374176,2.574603,0.353572,0.000000,1784.773315,0.000000
4.150,0.000000,0.035041,0.084118,-0.896703,3.338882,2.644937,0.369765,0.000000,1765.958984,0.000000
4.160,0.000000,0.041537,0.088130,-0.916321,3.304122,2.765168,0.359401,0.000000,1747.144531,0.000000
4.170,0.000000,0.055523,0.089494,-0.946350,3.270160,2.960246,0.309201,0.000000,1728.330200,0.000000
4.180,0.000000,0.053126,0.086249,-0.958318,3.215422,3.237601,0.279081,0.000000,1709.515869,0.000000
4.190,0.000000,0.026155,0.076087,-0.943195,3.129519,3.638372,0.279081,0.000000,1690.701416,0.000000
4.200,0.000000,0.026566,0.069357,-0.965858,3.125923,3.774794,0.270660,0.000000,1693.213379,0.000000
4.210,0.000000,0.068053,0.067772,-1.045203,3.245788,3.514690,0.249609,0.000000,1727.714722,0.000000
4.220,0.000000,0.097950,0.073454,-1.068296,3.317706,3.162224,0.293331,0.000000,1762.216187,0.000000
4.230,0.000000,0.110462,0.090038,-1.007013,3.317706,2.671212,0.434216,0.000000,1796.717529,0.000000
4.240,0.000000,0.104968,0.102868,-0.967414,3.367783,2.376606,0.504496,0.000000,1831.218872,0.000000
4.250,0.000000,0.072463,0.110067,-0.960342,3.492975,2.376606,0.468870,0.000000,1865.720337,0.000000
4.260,0.000000,0.056352,0.107317,-0.964302,3.574216,2.544877,0.413812,0.000000,1900.221680,0.000000
4.270,0.000000,0.064833,0.089643,-0.984812,3.589532,2.965554,0.329605,0.000000,1934.723022,0.000000
4.280,0.000000,0.065328,0.074643,-1.001219,3.542519,3.274228,0.284911,0.000000,1969.224487,0.000000
4.290,0.000000,0.053844,0.063651,-1.011474,3.402011,3.414896,0.299485,0.000000,2003.725830,0.000000
4.300,0.000000,0.054761,0.064105,-1.031292,3.381634,3.541232,0.316003,0.000000,2020.406250,0.000000
4.310,0.000000,0.074281,0.081727,-1.065456,3.541453,3.646069,0.335435,0.000000,2010.355103,0.000000
4.320,0.000000,0.083991,0.097831,-1.075803,3.679697,3.672876,0.375595,0.000000,2000.304077,0.000000
4.330,0.000000,0.078986,0.111660,-1.050425,3.785577,3.582636,0.446847,0.000000,1990.253052,0.000000
4.340,0.000000,0.077373,0.114218,-1.032848,3.792902,3.564588,0.453325,0.000000,1980.201904,0.000000
4.350,0.000000,0.080849,0.099872,-1.026973,3.652394,3.654828,0.362640,0.000000,1970.150879,0.000000
4.360,0.000000,0.076339,0.086936,-1.001970,3.518013,3.638903,0.302400,0.000000,1960.099854,0.000000
4.370,0.000000,0.059850,0.076114,-0.948276,3.392821,3.463732,0.287826,0.000000,1950.048828,0.000000
4.380,0.000000,0.057353,0.075566,-0.935394,3.290004,3.302361,0.264831,0.000000,1939.997681,0.000000
4.390,0.000000,0.075844,0.090427,-0.983729,3.220749,3.161693,0.229205,0.000000,1929.946655,0.000000
4.400,0.000000,0.091543,0.104295,-1.023078,3.229273,3.055528,0.249932,0.000000,1928.946533,0.000000
4.410,0.000000,0.103055,0.116672,-1.048945,3.354465,3.001119,0.355191,0.000000,1941.522949,0.000000
4.420,0.000000,0.096960,0.119893,-1.048646,3.491110,2.878233,0.432597,0.000000,1954.099243,0.000000
4.430,0.000000,0.064455,0.109380,-1.009097,3.644936,2.652634,0.468223,0.000000,1966.675659,0.000000
4.440,0.000000,0.029959,0.096724,-0.974334,3.723647,2.621315,0.467575,0.000000,1979.252075,0.000000
4.450,0.000000,-0.007524,0.080853,-0.946753,3.689685,2.881418,0.412517,0.000000,1991.828369,0.000000
4.460,0.000000,-0.024219,0.071570,-0.927571,3.635214,2.967412,0.379482,0.000000,2004.404785,0.000000
4.470,0.000000,-0.009732,0.072166,-0.920988,3.549977,2.792240,0.379482,0.000000,2016.981079,0.000000
4.480,0.000000,0.008159,0.078273,-0.921043,3.504695,2.687137,0.365231,0.000000,2029.557495,0.000000
4.490,0.000000,0.031154,0.092646,-0.931052,3.519345,2.687137,0.329605,0.000000,2042.133911,0.000000
4.500,0.000000,0.048155,0.102920,-0.974258,3.569954,2.743404,0.316003,0.000000,2037.865967,0.000000
4.510,0.000000,0.056163,0.107044,-1.067257,3.674502,2.884073,0.335435,0.000000,2008.331543,0.000000
4.520,0.000000,0.060968,0.104438,-1.089077,3.703403,3.038011,0.339321,0.000000,1978.797119,0.000000
4.530,0.000000,0.060968,0.091736,-1.004130,3.618832,3.211856,0.319889,0.000000,1949.262817,0.000000
4.540,0.000000,0.062970,0.081189,-0.952574,3.518013,3.296522,0.302400,0.000000,1919.728394,0.000000
4.550,0.000000,0.067975,0.073872,-0.951105,3.392821,3.247421,0.287826,0.000000,1890.193970,0.000000
4.560,0.000000,0.072769,0.070262,-0.960962,3.275887,3.203628,0.284911,0.000000,1860.659668,0.000000
4.570,0.000000,0.077245,0.072215,-0.987809,3.171339,3.167798,0.299485,0.000000,1831.125244,0.000000
4.580,0.000000,0.072135,0.072335,-0.999522,3.158686,3.006693,0.330253,0.000000,1801.590820,0.000000
4.590,0.000000,0.052643,0.069709,-0.988533,3.283878,2.657676,0.385311,0.000000,1772.056396,0.000000
4.600,0.000000,0.040747,0.068926,-0.950202,3.373110,2.546469,0.410573,0.000000,1761.353149,0.000000
4.610,0.000000,0.040247,0.070910,-0.870857,3.408404,2.791975,0.391141,0.000000,1778.896484,0.000000
4.620,0.000000,0.042449,0.077821,-0.845664,3.428248,3.033234,0.361992,0.000000,1796.439819,0.000000
4.630,0.000000,0.048705,0.092120,-0.901698,3.424918,3.268123,0.318270,0.000000,1813.983276,0.000000
4.640,0.000000,0.055462,0.103488,-0.947427,3.469002,3.384639,0.292036,0.000000,1831.526611,0.000000
4.650,0.000000,0.062970,0.110458,-0.977702,3.584205,3.323594,0.292036,0.000000,1849.069946,0.000000
4.660,0.000000,0.073069,0.110810,-1.006366,3.685290,3.157446,0.313412,0.000000,1866.613281,0.000000
4.670,0.000000,0.087055,0.101235,-1.032614,3.765200,2.833644,0.366851,0.000000,1884.156616,0.000000
4.680,0.000000,0.091944,0.091928,-1.030933,3.806220,2.548061,0.419642,0.000000,1901.700073,0.000000
4.690,0.000000,0.083185,0.083023,-0.987358,3.788906,2.319808,0.471461,0.000000,1919.243408,0.000000
4.700,0.000000,0.079131,0.079519,-0.963704,3.743624,2.221605,0.495428,0.000000,1934.164429,0.000000
4.710,0.000000,0.082434,0.084577,-0.970556,3.647666,2.328168,0.475834,0.000000,1946.250854,0.000000
4.720,0.000000,0.076942,0.091921,-0.952794,3.533795,2.464191,0.445875,0.000000,1957.238403,0.000000
4.730,0.000000,0.062956,0.102012,-0.911041,3.393287,2.639363,0.403772,0.000000,1968.225952,0.000000
4.740,0.000000,0.051083,0.105992,-0.889185,3.344343,2.748182,0.364907,0.000000,1979.213623,0.000000
4.750,0.000000,0.041323,0.103862,-0.887227,3.386961,2.790648,0.329281,0.000000,1990.201172,0.000000
4.760,0.000000,0.040447,0.094170,-0.919024,3.490844,2.855674,0.320375,0.000000,2001.188843,0.000000
4.770,0.000000,0.048455,0.076916,-0.984578,3.655990,2.943259,0.338188,0.000000,2012.176392,0.000000
4.780,0.000000,0.058576,0.064267,-1.020102,3.729907,3.079283,0.356001,0.000000,2023.163940,0.000000
4.790,0.000000,0.070811,0.056224,-1.025596,3.712593,3.263744,0.373814,0.000000,2034.151611,0.000000
4.800,0.000000,0.060189,0.061355,-0.996002,3.677632,3.338723,0.373814,0.000000,2032.278564,0.000000
4.810,0.000000,0.026711,0.079660,-0.931319,3.625025,3.304219,0.356001,0.000000,2017.544800,0.000000
4.820,0.000000,0.019718,0.098564,-0.923757,3.591064,3.277678,0.347094,0.000000,2002.811035,0.000000
4.830,0.000000,0.039210,0.118067,-0.973317,3.575748,3.259099,0.347094,0.000000,1988.077271,0.000000
4.840,0.000000,0.050958,0.124273,-1.012010,3.540787,3.241848,0.330091,0.000000,1973.343506,0.000000
4.850,0.000000,0.054962,0.117182,-1.039836,3.486182,3.225923,0.296084,0.000000,1958.609741,0.000000
4.860,0.000000,0.055462,0.105941,-1.048132,3.451555,3.260426,0.286368,0.000000,1943.875977,0.000000
4.870,0.000000,0.052459,0.090552,-1.036898,3.436905,3.345358,0.300942,0.000000,1929.142212,0.000000
4.880,0.000000,0.058465,0.083406,-1.022006,3.489512,3.335405,0.326043,0.000000,1914.408447,0.000000
4.890,0.000000,0.073480,0.084502,-1.003455,3.609376,3.230567,0.361669,0.000000,1899.674683,0.000000
4.900,0.000000,0.077234,0.086066,-0.997838,3.626690,3.083264,0.371385,0.000000,1885.543091,0.000000
4.910,0.000000,0.069727,0.088097,-1.005155,3.541453,2.893495,0.355191,0.000000,1872.013428,0.000000
4.920,0.000000,0.056978,0.082831,-0.989896,3.523806,2.780695,0.364907,0.000000,1858.483765,0.000000
4.930,0.000000,0.038987,0.070267,-0.952060,3.573750,2.744864,0.400533,0.000000,1844.954224,0.000000
4.940,0.000000,0.032481,0.058827,-0.948891,3.591064,2.726949,0.418346,0.000000,1831.424561,0.000000
4.950,0.000000,0.037458,0.048512,-0.980389,3.575748,2.726949,0.418346,0.000000,1817.894897,0.000000
4.960,0.000000,0.050207,0.045459,-1.001021,3.540787,2.734911,0.408630,0.000000,1804.365234,0.000000
4.970,0.000000,0.070728,0.049668,-1.010786,3.486182,2.750836,0.389198,0.000000,1790.835693,0.000000
4.980,0.000000,0.064986,0.056556,-0.982089,3.441233,2.786003,0.361669,0.000000,1777.306030,0.000000
4.990,0.000000,0.032981,0.066123,-0.914931,3.405940,2.840412,0.326043,0.000000,1763.776367,0.000000
5.000,0.000000,0.023722,0.074404,-0.911993,3.336019,3.007622,0.308230,0.000000,1763.617554,0.000000
5.010,0.000000,0.037208,0.081397,-0.973276,3.231471,3.287631,0.308230,0.000000,1776.829468,0.000000
5.020,0.000000,0.062191,0.087891,-1.032492,3.231471,3.348012,0.308230,0.000000,1790.041260,0.000000
5.030,0.000000,0.098673,0.093885,-1.089640,3.336019,3.188765,0.308230,0.000000,1803.253174,0.000000
5.040,0.000000,0.100424,0.100692,-1.086471,3.475528,2.908756,0.317946,0.000000,1816.465088,0.000000
5.050,0.000000,0.067447,0.108314,-1.022985,3.649997,2.507984,0.337378,0.000000,1829.676880,0.000000
5.060,0.000000,0.062956,0.112837,-0.999293,3.772525,2.395185,0.390007,0.000000,1842.888794,0.000000
5.070,0.000000,0.086952,0.114260,-1.015396,3.843112,2.570356,0.475834,0.000000,1856.100708,0.000000
5.080,0.000000,0.084700,0.107649,-0.976336,3.800827,2.833113,0.466118,0.000000,1869.312500,0.000000
5.090,0.000000,0.056199,0.093005,-0.882113,3.645669,3.183457,0.360859,0.000000,1882.524414,0.000000
5.100,0.000000,0.051444,0.076778,-0.888709,3.488513,3.436261,0.308230,0.000000,1884.372437,0.000000
5.110,0.000000,0.070436,0.058969,-0.996125,3.329360,3.591527,0.308230,0.000000,1874.856567,0.000000
5.120,0.000000,0.074190,0.050793,-1.023951,3.266764,3.703664,0.290417,0.000000,1865.340576,0.000000
5.130,0.000000,0.062706,0.052249,-0.972188,3.300725,3.772671,0.254791,0.000000,1855.824707,0.000000
5.140,0.000000,0.054461,0.062724,-0.956072,3.310381,3.667833,0.254791,0.000000,1846.308838,0.000000
5.150,0.000000,0.049456,0.082218,-0.975602,3.295731,3.389151,0.290417,0.000000,1836.792969,0.000000
5.160,0.000000,0.067947,0.101291,-1.004407,3.331025,3.214643,0.326043,0.000000,1827.277100,0.000000
5.170,0.000000,0.109934,0.119942,-1.042488,3.416261,3.144309,0.361669,0.000000,1817.761230,0.000000
5.180,0.000000,0.111686,0.131035,-1.044936,3.516481,2.968473,0.393246,0.000000,1808.245239,0.000000
5.190,0.000000,0.073202,0.134572,-1.011751,3.631684,2.687137,0.420775,0.000000,1798.729370,0.000000
5.200,0.000000,0.056338,0.129327,-0.988753,3.676301,2.616803,0.420775,0.000000,1795.468262,0.000000
5.210,0.000000,0.061093,0.115302,-0.975942,3.650330,2.757471,0.393246,0.000000,1798.461792,0.000000
5.220,0.000000,0.063971,0.098723,-0.977955,3.588733,2.950558,0.357620,0.000000,1801.455322,0.000000
5.230,0.000000,0.064972,0.079590,-0.994792,3.491510,3.196064,0.313897,0.000000,1804.448975,0.000000
5.240,0.000000,0.063595,0.066907,-1.005835,3.399281,3.397777,0.292036,0.000000,1807.442505,0.000000
5.250,0.000000,0.059842,0.060674,-1.011085,3.312046,3.555697,0.292036,0.000000,1810.436157,0.000000
5.260,0.000000,0.060718,0.061284,-1.010894,3.247119,3.608115,0.304991,0.000000,1813.429688,0.000000
5.270,0.000000,0.066223,0.068737,-1.005264,3.204501,3.555033,0.330901,0.000000,1816.423340,0.000000
5.280,0.000000,0.074217,0.076298,-1.016620,3.204501,3.388487,0.357620,0.000000,1819.416870,0.000000
5.290,0.000000,0.084700,0.083968,-1.044963,3.247119,3.108478,0.385149,0.000000,1822.410400,0.000000
5.300,0.000000,0.086688,0.089507,-1.054851,3.320703,2.851029,0.403772,0.000000,1816.256104,0.000000
5.310,0.000000,0.080182,0.092917,-1.046283,3.425251,2.616139,0.413488,0.000000,1800.953735,0.000000
5.320,0.000000,0.074426,0.094447,-1.029486,3.508823,2.576991,0.413488,0.000000,1785.651367,0.000000
5.330,0.000000,0.069421,0.094097,-1.004462,3.571419,2.733584,0.403772,0.000000,1770.348999,0.000000
5.340,0.000000,0.065931,0.089588,-0.992072,3.589066,2.912074,0.398914,0.000000,1755.046631,0.000000
5.350,0.000000,0.063957,0.080920,-0.992316,3.561763,3.112459,0.398914,0.000000,1739.744263,0.000000
5.360,0.000000,0.061093,0.071377,-1.003251,3.543118,3.125066,0.403772,0.000000,1724.441895,0.000000
5.370,0.000000,0.057339,0.060959,-1.024876,3.533129,2.949895,0.413488,0.000000,1709.139526,0.000000
5.380,0.000000,0.054962,0.056871,-1.015600,3.554771,2.722304,0.436159,0.000000,1693.837158,0.000000
5.390,0.000000,0.053961,0.059115,-0.975425,3.608044,2.442295,0.471785,0.000000,1678.534790,0.000000
5.400,0.000000,0.059828,0.066218,-0.942526,3.613372,2.276412,0.480692,0.000000,1690.116089,0.000000
5.410,0.000000,0.072563,0.078179,-0.916903,3.570753,2.224658,0.462879,0.000000,1728.581055,0.000000
5.420,0.000000,0.076928,0.087538,-0.908606,3.496837,2.273759,0.418346,0.000000,1767.046021,0.000000
5.430,0.000000,0.072924,0.094292,-0.917637,3.391623,2.423716,0.347094,0.000000,1805.510864,0.000000
5.440,0.000000,0.070060,0.095362,-0.930272,3.365319,2.585617,0.311468,0.000000,1843.975830,0.000000
5.450,0.000000,0.068336,0.090745,-0.946511,3.417926,2.759462,0.311468,0.000000,1882.440796,0.000000
5.460,0.000000,0.063220,0.083061,-0.955732,3.510155,2.881551,0.324423,0.000000,1920.905762,0.000000
5.470,0.000000,0.054711,0.072309,-0.957935,3.642006,2.951885,0.350333,0.000000,1959.370605,0.000000
5.480,0.000000,0.046078,0.064424,-0.962260,3.664314,3.030845,0.354381,0.000000,1997.835571,0.000000
5.490,0.000000,0.037319,0.059406,-0.968706,3.577079,3.118431,0.336568,0.000000,2036.300537,0.000000
5.500,0.000000,0.036443,0.061934,-0.981763,3.498502,3.223932,0.323614,0.000000,2043.684082,0.000000
5.510,0.000000,0.043450,0.072008,-1.001429,3.428581,3.347348,0.315517,0.000000,2019.986328,0.000000
5.520,0.000000,0.048580,0.084619,-1.008025,3.419924,3.452850,0.306610,0.000000,1996.288574,0.000000
5.530,0.000000,0.051834,0.099768,-1.001551,3.472531,3.540436,0.296894,0.000000,1972.590820,0.000000
5.540,0.000000,0.062330,0.105930,-0.999960,3.453552,3.552379,0.288797,0.000000,1948.893066,0.000000
5.550,0.000000,0.080070,0.103104,-1.003251,3.362988,3.488680,0.282320,0.000000,1925.195435,0.000000
5.560,0.000000,0.092444,0.092080,-1.013927,3.362988,3.369908,0.296084,0.000000,1901.497681,0.000000
5.570,0.000000,0.099451,0.072857,-1.031989,3.453552,3.196064,0.330091,0.000000,1877.799927,0.000000
5.580,0.000000,0.091457,0.060234,-1.015750,3.533462,2.943923,0.382720,0.000000,1854.102173,0.000000
5.590,0.000000,0.068461,0.054211,-0.965211,3.602717,2.613485,0.453972,0.000000,1830.404419,0.000000
5.600,0.000000,0.062970,0.057854,-0.955446,3.627689,2.430351,0.479072,0.000000,1815.168945,0.000000
5.610,0.000000,0.074982,0.071163,-0.986455,3.608377,2.394521,0.458021,0.000000,1808.395752,0.000000
5.620,0.000000,0.068239,0.081947,-0.973031,3.556436,2.454238,0.412679,0.000000,1801.622559,0.000000
5.630,0.000000,0.042741,0.090207,-0.915175,3.471865,2.609504,0.343046,0.000000,1794.849487,0.000000
5.640,0.000000,0.038723,0.093538,-0.925920,3.471865,2.757471,0.326043,0.000000,1788.076294,0.000000
5.650,0.000000,0.056185,0.091940,-1.005264,3.556436,2.898139,0.361669,0.000000,1781.303101,0.000000
5.660,0.000000,0.070672,0.091182,-1.048839,3.608377,3.118431,0.371385,0.000000,1774.529907,0.000000
5.670,0.000000,0.082184,0.091264,-1.056646,3.627689,3.418346,0.355191,0.000000,1767.756836,0.000000
5.680,0.000000,0.099674,0.089327,-1.077890,3.602717,3.488680,0.337378,0.000000,1760.983643,0.000000
5.690,0.000000,0.123142,0.085370,-1.112570,3.533462,3.329433,0.317946,0.000000,1754.210449,0.000000
5.700,0.000000,0.113646,0.079244,-1.115508,3.586402,3.101843,0.335759,0.000000,1755.548340,0.000000
5.710,0.000000,0.071186,0.070948,-1.086703,3.761538,2.805909,0.390817,0.000000,1764.997314,0.000000
5.720,0.000000,0.053697,0.068660,-1.038734,3.849105,2.570356,0.436159,0.000000,1774.446289,0.000000
5.730,0.000000,0.061176,0.072382,-0.971603,3.849105,2.395185,0.471785,0.000000,1783.895264,0.000000
5.740,0.000000,0.060676,0.079534,-0.929116,3.726577,2.447603,0.453972,0.000000,1793.344238,0.000000
5.750,0.000000,0.051347,0.091177,-0.909488,3.457015,2.755613,0.375595,0.000000,1803.738159,0.000000
5.760,0.000000,0.050357,0.094322,-0.937798,3.409735,2.960777,0.368470,0.000000,1813.187134,0.000000
5.770,0.000000,0.054361,0.092508,-0.996878,3.494306,3.116042,0.404096,0.000000,1822.636108,0.000000
5.780,0.000000,0.064054,0.087560,-1.019645,3.528135,3.303954,0.396971,0.000000,1832.085083,0.000000
5.790,0.000000,0.077540,0.080523,-1.018203,3.528135,3.513629,0.361345,0.000000,1841.534180,0.000000
5.800,0.000000,0.079031,0.078333,-1.001649,3.519345,3.588740,0.326690,0.000000,1842.494019,0.000000
5.810,0.000000,0.072524,0.079374,-0.975020,3.504695,3.574143,0.292684,0.000000,1837.794678,0.000000
5.820,0.000000,0.078030,0.079948,-0.984148,3.582740,3.409057,0.309201,0.000000,1833.095215,0.000000
5.830,0.000000,0.091543,0.080210,-1.017115,3.722581,3.143645,0.359401,0.000000,1828.395874,0.000000
5.840,0.000000,0.072057,0.077485,-1.001448,3.703403,2.965819,0.421261,0.000000,1823.696411,0.000000
5.850,0.000000,0.030570,0.072769,-0.953357,3.578212,2.846384,0.490894,0.000000,1818.996948,0.000000
5.860,0.000000,0.030459,0.070213,-0.962388,3.486182,2.765168,0.476967,0.000000,1814.297607,0.000000
5.870,0.000000,0.057931,0.069097,-1.009499,3.416261,2.709432,0.407335,0.000000,1809.598145,0.000000
5.880,0.000000,0.051836,0.069237,-0.977522,3.400679,2.762779,0.379482,0.000000,1804.898804,0.000000
5.890,0.000000,0.023363,0.070214,-0.892819,3.421322,2.888850,0.379482,0.000000,1800.199341,0.000000
5.900,0.000000,0.033562,0.071776,-0.922065,3.396018,3.085785,0.349361,0.000000,1807.360474,0.000000
5.910,0.000000,0.069543,0.073727,-1.027277,3.340081,3.329964,0.299161,0.000000,1822.428711,0.000000
5.920,0.000000,0.071490,0.079211,-1.021103,3.376440,3.516017,0.287826,0.000000,1837.496948,0.000000
5.930,0.000000,0.050746,0.087050,-0.940671,3.474329,3.663321,0.302400,0.000000,1852.565186,0.000000
5.940,0.000000,0.057898,0.092199,-0.932587,3.576613,3.628287,0.314059,0.000000,1867.633423,0.000000
5.950,0.000000,0.083646,0.095553,-0.972735,3.681828,3.471694,0.323775,0.000000,1882.701660,0.000000
